$GPGSV,3,2,12,18,55,198,39,21,21,041,22,26,56,278,34,28,17,222,23*7F
$GPGSV,3,3,12,29,56,087,16,31,31,251,34,36,27,181,35,49,25,203,*7E
$GLGSV,2,1,08,65,18,012,16,66,16,062,,73,55,301,32,79,04,162,10*6A
$GLGSV,2,2,08,80,52,186,37,81,28,051,31,82,77,035,20,83,44,235,34*6A
$GNGLL,5454.21486,N,02357.39866,E,152826.00,A,A*75
$GNRMC,152827.00,A,5454.21485,N,02357.39857,E,0.089,,120126,,,A*6B
$GNVTG,,T,,M,0.089,N,0.165,K,A*3E
$GNGGA,152827.00,5454.21485,N,02357.39857,E,1,12,0.93,70.8,M,26.5,M,,*77
$GNGSA,A,3,05,29,21,31,18,26,16,28,,,,,1.75,0.93,1.48*17
$GNGSA,A,3,73,83,82,80,81,,,,,,,,1.75,0.93,1.48*1C
$GPGSV,3,1,12,05,35,072,12,09,04,341,,11,01,046,,16,26,304,26*75
$GPGSV,3,2,12,18,55,198,39,21,21,041,21,26,56,278,34,28,17,222,24*7B
$GPGSV,3,3,12,29,56,087,16,31,31,251,35,36,27,181,34,49,25,203,*7E
$GLGSV,2,1,08,65,18,012,18,66,16,062,,73,55,301,32,79,04,162,08*6D
$GLGSV,2,2,08,80,52,186,36,81,28,051,31,82,77,035,19,83,44,235,34*61
$GNGLL,5454.21485,N,02357.39857,E,152827.00,A,A*75
$GNRMC,152828.00,A,5454.21486,N,02357.39846,E,0.036,,120126,,,A*63
$GNVTG,,T,,M,0.036,N,0.067,K,A*39
$GNGGA,152828.00,5454.21486,N,02357.39846,E,1,12,0.93,70.8,M,26.5,M,,*7B
$GNGSA,A,3,05,29,21,31,18,26,16,28,,,,,1.74,0.93,1.48*16
$GNGSA,A,3,73,83,82,80,81,,,,,,,,1.74,0.93,1.48*1D
$GPGSV,3,1,12,05,35,072,12,09,04,341,,11,01,046,,16,26,304,26*75
$GPGSV,3,2,12,18,55,198,39,21,21,041,20,26,56,278,34,28,17,222,23*7D
$GPGSV,3,3,12,29,56,087,15,31,31,251,34,36,27,181,35,49,25,203,*7D
$GLGSV,2,1,08,65,18,012,18,66,16,062,,73,55,301,32,79,04,162,08*6D
$GLGSV,2,2,08,80,52,186,37,81,28,051,31,82,77,035,18,83,44,235,34*61
$GNGLL,5454.21486,N,02357.39846,E,152828.00,A,A*79
$GNRMC,152829.00,A,5454.21492,N,02357.39837,E,0.055,,120126,,,A*64
$GNVTG,,T,,M,0.055,N,0.102,K,A*3E
$GNGGA,152829.00,5454.21492,N,02357.39837,E,1,12,0.89,70.8,M,26.5,M,,*72
$GNGSA,A,3,05,29,21,31,18,26,16,28,,,,,1.62,0.89,1.36*13
$GNGSA,A,3,73,83,82,80,81,,,,,,,,1.62,0.89,1.36*18
$GPGSV,3,1,12,05,35,072,12,09,04,341,,11,01,046,,16,26,304,25*76
$GPGSV,3,2,12,18,55,198,40,21,21,041,22,26,56,278,34,28,17,222,23*71
$GPGSV,3,3,12,29,56,087,17,31,31,251,34,36,27,181,34,49,25,203,*7E
$GLGSV,2,1,08,65,18,012,19,66,16,062,24,73,55,301,32,79,04,162,12*61
$GLGSV,2,2,08,80,52,186,37,81,28,051,31,82,77,035,20,83,44,235,34*6A
$GNGLL,5454.21492,N,02357.39837,E,152829.00,A,A*7B
$GNRMC,152830.00,A,5454.21499,N,02357.39825,E,0.093,,120126,,,A*6E
$GNVTG,,T,,M,0.093,N,0.173,K,A*32
$GNGGA,152830.00,5454.21499,N,02357.39825,E,1,12,0.93,70.8,M,26.5,M,,*79
$GNGSA,A,3,29,21,31,18,26,16,28,,,,,,1.65,0.93,1.36*1A
$GNGSA,A,3,73,83,82,80,81,,,,,,,,1.65,0.93,1.36*14
$GPGSV,3,1,12,05,35,072,09,09,04,341,,11,01,046,,16,26,304,24*7D
$GPGSV,3,2,12,18,55,198,40,21,21,041,22,26,56,278,34,28,17,222,24*76
$GPGSV,3,3,12,29,56,087,17,31,31,251,34,36,27,181,34,49,25,203,*7E
$GLGSV,2,1,08,65,18,012,18,66,16,062,22,73,55,301,32,79,04,162,12*66
$GLGSV,2,2,08,80,52,186,37,81,28,051,31,82,77,035,20,83,44,235,34*6A
$GNGLL,5454.21499,N,02357.39825,E,152830.00,A,A*7B
$GNRMC,152831.00,A,5454.21506,N,02357.39811,E,0.082,,120126,,,A*6F
$GNVTG,,T,,M,0.082,N,0.152,K,A*31
$GNGGA,152831.00,5454.21506,N,02357.39811,E,1,12,0.89,70.6,M,26.5,M,,*7D
$GNGSA,A,3,05,29,21,31,18,26,16,28,,,,,1.62,0.89,1.35*10
$GNGSA,A,3,73,83,82,80,81,,,,,,,,1.62,0.89,1.35*1B
$GPGSV,3,1,12,05,35,072,08,09,04,341,,11,01,046,,16,26,304,25*7D
$GPGSV,3,2,12,18,55,198,40,21,21,041,22,26,56,278,34,28,17,222,24*76
$GPGSV,3,3,12,29,56,087,17,31,31,251,34,36,27,181,34,49,25,203,*7E
$GLGSV,3,1,09,65,18,012,18,66,16,062,22,73,55,301,32,74,13,329,*63
$GLGSV,3,2,09,79,04,162,13,80,52,186,36,81,28,051,30,82,77,035,17*6B
$GLGSV,3,3,09,83,44,235,35*55
$GNGLL,5454.21506,N,02357.39811,E,152831.00,A,A*7A
$GNRMC,152832.00,A,5454.21513,N,02357.39801,E,0.048,,120126,,,A*6F
$GNVTG,,T,,M,0.048,N,0.089,K,A*30
$GNGGA,152832.00,5454.21513,N,02357.39801,E,1,12,0.89,70.5,M,26.5,M,,*78
$GNGSA,A,3,05,29,21,31,18,26,16,28,,,,,1.62,0.89,1.35*10
$GNGSA,A,3,73,83,82,80,81,,,,,,,,1.62,0.89,1.35*1B
$GPGSV,3,1,12,05,35,072,11,09,04,341,,11,01,046,,16,26,304,25*75
$GPGSV,3,2,12,18,55,198,40,21,21,041,23,26,56,278,34,28,17,222,24*77
$GPGSV,3,3,12,29,56,087,17,31,31,251,34,36,27,181,34,49,25,203,*7E
$GLGSV,3,1,09,65,18,012,19,66,16,062,23,73,55,301,32,74,13,329,23*62
$GLGSV,3,2,09,79,03,162,13,80,52,186,36,81,28,051,29,82,77,035,14*67
$GLGSV,3,3,09,83,44,235,35*55
$GNGLL,5454.21513,N,02357.39801,E,152832.00,A,A*7C
$GNRMC,152833.00,A,5454.21518,N,02357.39789,E,0.082,,120126,,,A*6C
$GNVTG,,T,,M,0.082,N,0.152,K,A*31
$GNGGA,152833.00,5454.21518,N,02357.39789,E,1,12,0.89,70.4,M,26.5,M,,*7C
$GNGSA,A,3,05,29,21,31,18,26,16,28,,,,,1.62,0.89,1.35*10
$GNGSA,A,3,73,83,82,80,81,,,,,,,,1.62,0.89,1.35*1B
$GPGSV,3,1,12,05,35,072,10,09,04,341,,11,01,046,,16,26,304,26*77
$GPGSV,3,2,12,18,55,198,40,21,21,041,23,26,56,278,34,28,17,222,24*77
$GPGSV,3,3,12,29,56,087,18,31,31,251,34,36,27,181,34,49,25,203,*71
$GLGSV,3,1,09,65,18,012,19,66,16,062,23,73,55,301,32,74,13,329,22*63
$GLGSV,3,2,09,79,03,162,12,80,51,186,36,81,28,051,29,82,77,035,13*62
$GLGSV,3,3,09,83,44,235,35*55
$GNGLL,5454.21518,N,02357.39789,E,152833.00,A,A*79
$GNRMC,152834.00,A,5454.21524,N,02357.39779,E,0.041,,120126,,,A*64
$GNVTG,,T,,M,0.041,N,0.076,K,A*39
$GNGGA,152834.00,5454.21524,N,02357.39779,E,1,12,0.89,70.3,M,26.5,M,,*7C
$GNGSA,A,3,05,29,21,31,18,26,16,28,,,,,1.62,0.89,1.35*10
$GNGSA,A,3,73,83,82,80,81,,,,,,,,1.62,0.89,1.35*1B
$GPGSV,3,1,12,05,35,072,10,09,04,341,,11,01,046,,16,26,304,26*77
$GPGSV,3,2,12,18,55,198,40,21,21,041,23,26,56,278,34,28,17,222,24*77
$GPGSV,3,3,12,29,56,087,18,31,31,251,34,36,27,181,34,49,25,203,*71
$GLGSV,3,1,09,65,18,012,17,66,16,062,23,73,55,301,32,74,13,329,22*6D
$GLGSV,3,2,09,79,03,162,09,80,51,186,36,81,27,051,29,82,77,035,13*67
$GLGSV,3,3,09,83,44,235,35*55
$GNGLL,5454.21524,N,02357.39779,E,152834.00,A,A*7E
$GNRMC,152835.00,A,5454.21527,N,02357.39772,E,0.026,,120126,,,A*6C
$GNVTG,,T,,M,0.026,N,0.048,K,A*35
$GNGGA,152835.00,5454.21527,N,02357.39772,E,1,12,0.89,69.9,M,26.5,M,,*77
$GNGSA,A,3,05,29,21,31,18,26,16,28,,,,,1.62,0.89,1.35*10
$GNGSA,A,3,73,83,82,80,81,,,,,,,,1.62,0.89,1.35*1B
$GPGSV,3,1,12,05,35,072,10,09,04,341,,11,01,046,,16,26,304,27*76
$GPGSV,3,2,12,18,55,198,40,21,21,041,24,26,56,278,33,28,17,222,24*77
$GPGSV,3,3,12,29,56,087,18,31,31,251,35,36,27,181,33,49,25,203,*77
$GLGSV,3,1,09,65,18,012,18,66,16,062,23,73,55,301,33,74,13,329,22*63
$GLGSV,3,2,09,79,03,162,13,80,51,186,37,81,27,051,28,82,77,035,16*69
$GLGSV,3,3,09,83,44,235,34*54
$GNGLL,5454.21527,N,02357.39772,E,152835.00,A,A*77
$GNRMC,152836.00,A,5454.21528,N,02357.39774,E,0.070,,120126,,,A*65
$GNVTG,,T,,M,0.070,N,0.129,K,A*30
$GNGGA,152836.00,5454.21528,N,02357.39774,E,1,12,0.89,69.7,M,26.5,M,,*73
$GNGSA,A,3,05,29,21,31,18,26,16,28,,,,,1.62,0.89,1.35*10
$GNGSA,A,3,73,83,82,80,81,,,,,,,,1.62,0.89,1.35*1B
$GPGSV,3,1,12,05,35,072,10,09,04,341,,11,01,046,,16,26,304,26*77
$GPGSV,3,2,12,18,55,198,38,21,21,041,22,26,56,278,32,28,17,222,24*7F
$GPGSV,3,3,12,29,56,087,18,31,31,251,36,36,27,181,32,49,25,203,*75
$GLGSV,3,1,09,65,18,012,20,66,16,062,22,73,55,301,37,74,13,329,22*6D
$GLGSV,3,2,09,79,03,162,15,80,51,186,35,81,27,051,28,82,77,035,19*62
$GLGSV,3,3,09,83,44,236,33*50
$GNGLL,5454.21528,N,02357.39774,E,152836.00,A,A*7D
$GNRMC,152837.00,A,5454.21544,N,02357.39766,E,0.294,,120126,,,A*65
$GNVTG,,T,,M,0.294,N,0.545,K,A*36
$GNGGA,152837.00,5454.21544,N,02357.39766,E,1,12,0.89,70.0,M,26.5,M,,*74
$GNGSA,A,3,05,29,21,31,18,26,16,28,,,,,1.62,0.89,1.35*10
$GNGSA,A,3,73,83,82,80,81,,,,,,,,1.62,0.89,1.35*1B
$GPGSV,3,1,12,05,35,072,10,09,04,341,,11,01,046,,16,26,304,27*76
$GPGSV,3,2,12,18,55,198,35,21,21,041,21,26,56,278,40,28,17,222,23*73
$GPGSV,3,3,12,29,56,087,19,31,31,251,34,36,27,181,34,49,25,203,*70
$GLGSV,3,1,09,65,18,012,23,66,16,062,21,73,55,301,32,74,13,329,21*6B
$GLGSV,3,2,09,79,03,162,15,80,51,186,35,81,27,051,28,82,77,035,30*69
$GLGSV,3,3,09,83,44,236,33*50
$GNGLL,5454.21544,N,02357.39766,E,152837.00,A,A*75
$GNRMC,152838.00,A,5454.21550,N,02357.39759,E,0.309,,120126,,,A*66
$GNVTG,,T,,M,0.309,N,0.572,K,A*37
$GNGGA,152838.00,5454.21550,N,02357.39759,E,1,12,0.89,70.0,M,26.5,M,,*72
$GNGSA,A,3,05,29,21,31,18,26,16,28,,,,,1.62,0.89,1.35*10
$GNGSA,A,3,73,83,82,80,81,,,,,,,,1.62,0.89,1.35*1B
$GPGSV,3,1,12,05,35,072,17,09,04,341,,11,01,046,,16,26,304,27*71
$GPGSV,3,2,12,18,55,198,26,21,21,041,21,26,56,278,39,28,17,222,31*7C
$GPGSV,3,3,12,29,56,087,18,31,31,251,31,36,27,181,34,49,25,203,*74
$GLGSV,3,1,09,65,18,012,30,66,16,062,19,73,55,301,34,74,13,329,18*6E
$GLGSV,3,2,09,79,03,162,16,80,51,186,35,81,27,051,28,82,77,035,30*6A
$GLGSV,3,3,09,83,44,236,40*54
$GNGLL,5454.21550,N,02357.39759,E,152838.00,A,A*73
$GNRMC,152839.00,A,5454.21547,N,02357.39739,E,0.495,,120126,,,A*65
$GNVTG,,T,,M,0.495,N,0.918,K,A*35
$GNGGA,152839.00,5454.21547,N,02357.39739,E,1,12,0.89,70.1,M,26.5,M,,*72
$GNGSA,A,3,05,29,21,31,18,26,16,28,,,,,1.62,0.89,1.35*10
$GNGSA,A,3,73,83,82,80,81,,,,,,,,1.62,0.89,1.35*1B
$GPGSV,3,1,12,05,35,072,17,09,04,341,,11,01,046,,16,26,304,28*7E
$GPGSV,3,2,12,18,55,198,34,21,21,041,24,26,56,278,34,28,17,222,24*73
$GPGSV,3,3,12,29,56,087,16,31,31,251,34,36,27,181,30,49,25,203,*7B
$GLGSV,3,1,09,65,18,012,27,66,16,062,17,73,55,301,35,74,13,329,16*69
$GLGSV,3,2,09,79,03,162,16,80,51,186,32,81,27,051,26,82,77,035,30*63
$GLGSV,3,3,09,83,44,236,36*55
$GNGLL,5454.21547,N,02357.39739,E,152839.00,A,A*72
$GNRMC,152840.00,A,5454.21545,N,02357.39735,E,0.317,,120126,,,A*68
$GNVTG,,T,,M,0.317,N,0.587,K,A*32
$GNGGA,152840.00,5454.21545,N,02357.39735,E,1,12,0.89,70.2,M,26.5,M,,*71
$GNGSA,A,3,05,29,21,31,18,26,16,28,,,,,1.62,0.89,1.35*10
$GNGSA,A,3,73,83,82,80,81,,,,,,,,1.62,0.89,1.35*1B
$GPGSV,3,1,12,05,35,072,17,09,04,341,,11,01,046,,16,26,304,26*70
$GPGSV,3,2,12,18,55,198,37,21,21,041,25,26,56,278,35,28,17,222,26*72
$GPGSV,3,3,12,29,56,087,13,31,31,251,33,36,27,181,29,49,25,203,*71
$GLGSV,3,1,09,65,18,012,26,66,16,062,19,73,55,301,36,74,13,329,17*64
$GLGSV,3,2,09,79,03,162,11,80,51,186,34,81,27,051,29,82,77,035,30*6D
$GLGSV,3,3,09,83,44,236,36*55
$GNGLL,5454.21545,N,02357.39735,E,152840.00,A,A*72
$GNRMC,152841.00,A,5454.21545,N,02357.39734,E,0.018,,120126,,,A*64
$GNVTG,,T,,M,0.018,N,0.033,K,A*34
$GNGGA,152841.00,5454.21545,N,02357.39734,E,1,12,0.93,69.9,M,26.5,M,,*79
$GNGSA,A,3,05,29,21,31,18,26,16,28,,,,,1.65,0.93,1.36*1F
$GNGSA,A,3,73,83,82,80,81,,,,,,,,1.65,0.93,1.36*14
$GPGSV,3,1,12,05,35,072,17,09,04,341,,11,01,046,,16,26,304,24*72
$GPGSV,3,2,12,18,55,198,37,21,21,041,26,26,56,278,34,28,17,222,27*71
$GPGSV,3,3,12,29,56,087,12,31,31,251,32,36,27,181,29,49,25,203,*71
$GLGSV,3,1,09,65,18,012,24,66,16,062,21,73,55,301,37,74,13,329,18*63
$GLGSV,3,2,09,79,03,162,13,80,51,186,33,81,27,051,31,82,77,035,30*61
$GLGSV,3,3,09,83,44,236,36*55
$GNGLL,5454.21545,N,02357.39734,E,152841.00,A,A*72
$GNRMC,152842.00,A,5454.21545,N,02357.39741,E,0.116,,120126,,,A*6A
$GNVTG,,T,,M,0.116,N,0.215,K,A*3D
$GNGGA,152842.00,5454.21545,N,02357.39741,E,1,12,0.89,70.0,M,26.5,M,,*72
$GNGSA,A,3,05,29,21,31,18,26,16,28,,,,,1.62,0.89,1.35*10
$GNGSA,A,3,73,83,82,80,81,,,,,,,,1.62,0.89,1.35*1B
$GPGSV,3,1,12,05,35,071,17,09,04,341,,11,01,046,,16,26,304,25*70
$GPGSV,3,2,12,18,55,198,37,21,21,041,27,26,56,278,31,28,17,222,27*75
$GPGSV,3,3,12,29,56,087,11,31,31,251,32,36,27,181,28,49,25,203,*73
$GLGSV,3,1,09,65,18,012,23,66,16,062,22,73,55,301,37,74,13,329,18*67
$GLGSV,3,2,09,79,03,162,14,80,51,186,36,81,27,051,31,82,77,035,30*63
$GLGSV,3,3,09,83,44,236,37*54
$GNGLL,5454.21545,N,02357.39741,E,152842.00,A,A*73
$GNRMC,152843.00,A,5454.21541,N,02357.39745,E,0.055,,120126,,,A*6D
$GNVTG,,T,,M,0.055,N,0.102,K,A*3E
$GNGGA,152843.00,5454.21541,N,02357.39745,E,1,12,0.89,70.1,M,26.5,M,,*72
$GNGSA,A,3,05,29,21,31,18,26,16,28,,,,,1.62,0.89,1.35*10
$GNGSA,A,3,73,83,82,80,81,,,,,,,,1.62,0.89,1.35*1B
$GPGSV,3,1,12,05,35,071,09,09,04,341,,11,01,046,,16,26,304,24*7E
$GPGSV,3,2,12,18,55,198,37,21,21,041,28,26,56,278,32,28,17,222,26*78
$GPGSV,3,3,12,29,56,087,12,31,31,251,30,36,27,181,32,49,25,203,*79
$GLGSV,3,1,09,65,18,012,20,66,16,062,21,73,55,301,36,74,13,329,17*69
$GLGSV,3,2,09,79,03,162,15,80,51,186,33,81,27,051,32,82,77,035,30*64
$GLGSV,3,3,09,83,44,236,37*54
$GNGLL,5454.21541,N,02357.39745,E,152843.00,A,A*72
$GNRMC,152844.00,A,5454.21536,N,02357.39742,E,0.080,,120126,,,A*65
$GNVTG,,T,,M,0.080,N,0.148,K,A*38
$GNGGA,152844.00,5454.21536,N,02357.39742,E,1,12,0.89,69.8,M,26.5,M,,*73
$GNGSA,A,3,05,29,21,31,18,26,16,28,,,,,1.62,0.89,1.35*10
$GNGSA,A,3,73,83,82,80,81,,,,,,,,1.62,0.89,1.35*1B
$GPGSV,3,1,12,05,35,071,11,09,04,341,,11,01,046,,16,26,304,24*77
$GPGSV,3,2,12,18,55,198,34,21,21,041,28,26,56,278,33,28,17,222,27*7B
$GPGSV,3,3,12,29,56,087,12,31,31,251,33,36,27,181,30,49,25,203,*78
$GLGSV,3,1,09,65,18,012,18,66,16,062,20,73,55,301,36,74,13,329,17*63
$GLGSV,3,2,09,79,03,162,09,80,51,186,32,81,27,051,31,82,77,035,30*6B
$GLGSV,3,3,09,83,44,236,37*54
$GNGLL,5454.21536,N,02357.39742,E,152844.00,A,A*72
$GNRMC,152845.00,A,5454.21531,N,02357.39745,E,0.015,,120126,,,A*68
$GNVTG,,T,,M,0.015,N,0.028,K,A*33
$GNGGA,152845.00,5454.21531,N,02357.39745,E,1,12,0.89,69.6,M,26.5,M,,*7C
$GNGSA,A,3,05,29,21,31,18,26,16,28,,,,,1.62,0.89,1.35*10
$GNGSA,A,3,73,83,82,80,81,,,,,,,,1.62,0.89,1.35*1B
$GPGSV,3,1,12,05,35,071,16,09,04,341,,11,01,046,,16,26,304,23*77
$GPGSV,3,2,12,18,55,198,35,21,21,041,28,26,56,278,32,28,17,222,28*74
$GPGSV,3,3,12,29,56,087,13,31,31,251,32,36,27,181,30,49,25,203,*78
$GLGSV,3,1,09,65,18,012,19,66,16,062,19,73,55,301,37,74,13,329,17*69
$GLGSV,3,2,09,79,03,162,11,80,51,186,33,81,27,051,32,82,77,035,30*60
$GLGSV,3,3,09,83,44,236,37*54
$GNGLL,5454.21531,N,02357.39745,E,152845.00,A,A*73
$GNRMC,152846.00,A,5454.21524,N,02357.39747,E,0.034,,120126,,,A*6E
$GNVTG,,T,,M,0.034,N,0.063,K,A*3F
$GNGGA,152846.00,5454.21524,N,02357.39747,E,1,12,0.89,69.4,M,26.5,M,,*7B
$GNGSA,A,3,05,29,21,31,18,26,16,28,,,,,1.62,0.89,1.35*10
$GNGSA,A,3,73,83,82,80,81,,,,,,,,1.62,0.89,1.35*1B
$GPGSV,3,1,12,05,35,071,17,09,04,340,,11,01,046,,16,26,304,21*75
$GPGSV,3,2,12,18,55,198,36,21,21,041,28,26,56,278,32,28,17,222,28*77
$GPGSV,3,3,12,29,56,087,12,31,31,251,32,36,27,181,31,49,25,203,*78
$GLGSV,3,1,09,65,18,012,20,66,16,062,19,73,55,301,37,74,13,329,16*62
$GLGSV,3,2,09,79,03,162,13,80,51,186,33,81,27,051,31,82,77,035,30*61
$GLGSV,3,3,09,83,44,236,37*54
$GNGLL,5454.21524,N,02357.39747,E,152846.00,A,A*76
$GNRMC,152847.00,A,5454.21519,N,02357.39746,E,0.043,,120126,,,A*60
$GNVTG,,T,,M,0.043,N,0.080,K,A*32
$GNGGA,152847.00,5454.21519,N,02357.39746,E,1,11,0.98,69.1,M,26.5,M,,*73
$GNGSA,A,3,21,31,18,26,16,28,,,,,,,1.71,0.98,1.39*10
$GNGSA,A,3,73,83,82,80,81,,,,,,,,1.71,0.98,1.39*15
$GPGSV,3,1,12,05,35,071,,09,04,340,,11,01,046,,16,26,304,19*78
$GPGSV,3,2,12,18,55,198,36,21,21,041,27,26,56,278,33,28,17,222,28*79
$GPGSV,3,3,12,29,56,087,09,31,31,251,32,36,27,181,30,49,25,203,35*75
$GLGSV,3,1,09,65,18,012,20,66,16,062,20,73,55,301,37,74,13,329,16*68
$GLGSV,3,2,09,79,03,162,13,80,51,186,33,81,27,051,30,82,77,035,30*60
$GLGSV,3,3,09,83,44,236,36*55
$GNGLL,5454.21519,N,02357.39746,E,152847.00,A,A*78
$GNRMC,152848.00,A,5454.21514,N,02357.39750,E,0.082,,120126,,,A*68
$GNVTG,,T,,M,0.082,N,0.152,K,A*31
$GNGGA,152848.00,5454.21514,N,02357.39750,E,1,12,0.93,68.9,M,26.5,M,,*77
$GNGSA,A,3,29,21,31,18,26,16,28,,,,,,1.65,0.93,1.36*1A
$GNGSA,A,3,73,83,82,80,81,,,,,,,,1.65,0.93,1.36*14
$GPGSV,3,1,12,05,35,071,,09,04,340,,11,00,046,,16,26,304,18*78
$GPGSV,3,2,12,18,55,198,36,21,21,041,26,26,56,278,33,28,17,222,29*79
$GPGSV,3,3,12,29,56,087,12,31,31,251,32,36,27,181,31,49,25,203,34*7F
$GLGSV,3,1,09,65,18,012,18,66,16,062,19,73,55,301,37,74,13,329,17*68
$GLGSV,3,2,09,79,03,162,12,80,51,186,34,81,27,051,30,82,77,035,30*66
$GLGSV,3,3,09,83,44,236,36*55
$GNGLL,5454.21514,N,02357.39750,E,152848.00,A,A*7D
$GNRMC,152849.00,A,5454.21507,N,02357.39757,E,0.057,,120126,,,A*64
$GNVTG,,T,,M,0.057,N,0.106,K,A*38
$GNGGA,152849.00,5454.21507,N,02357.39757,E,1,12,0.93,68.7,M,26.5,M,,*7D
$GNGSA,A,3,29,21,31,18,26,16,28,,,,,,1.65,0.93,1.36*1A
$GNGSA,A,3,73,83,82,80,81,,,,,,,,1.65,0.93,1.36*14
$GPGSV,3,1,12,05,35,071,15,09,04,340,,11,00,046,,16,26,304,16*72
$GPGSV,3,2,12,18,55,198,37,21,21,041,25,26,56,278,33,28,17,222,29*7B
$GPGSV,3,3,12,29,56,087,14,31,31,251,32,36,27,181,31,49,25,203,34*79
$GLGSV,3,1,09,65,18,012,17,66,16,062,18,73,55,301,37,74,13,329,18*69
$GLGSV,3,2,09,79,03,162,13,80,51,186,35,81,27,051,30,82,77,035,29*6E
$GLGSV,3,3,09,83,44,236,35*56
$GNGLL,5454.21507,N,02357.39757,E,152849.00,A,A*79
$GNRMC,152850.00,A,5454.21500,N,02357.39765,E,0.069,,120126,,,A*67
$GNVTG,,T,,M,0.069,N,0.128,K,A*39
$GNGGA,152850.00,5454.21500,N,02357.39765,E,1,11,1.21,68.4,M,26.5,M,,*7B
$GNGSA,A,3,29,21,31,18,26,28,,,,,,,1.89,1.21,1.45*13
$GNGSA,A,3,73,83,82,80,81,,,,,,,,1.89,1.21,1.45*1A
$GPGSV,3,1,12,05,35,071,16,09,04,340,,11,00,046,,16,26,304,15*72
$GPGSV,3,2,12,18,55,198,37,21,21,041,24,26,56,278,33,28,17,222,29*7A
$GPGSV,3,3,12,29,56,087,14,31,31,251,32,36,27,181,31,49,25,203,35*78
$GLGSV,3,1,09,65,18,012,17,66,16,062,17,73,55,301,37,74,13,329,18*66
$GLGSV,3,2,09,79,03,162,14,80,51,186,35,81,27,051,30,82,77,035,28*68
$GLGSV,3,3,09,83,44,236,35*56
$GNGLL,5454.21500,N,02357.39765,E,152850.00,A,A*77
$GNRMC,152851.00,A,5454.21496,N,02357.39774,E,0.020,,120126,,,A*65
$GNVTG,,T,,M,0.020,N,0.036,K,A*3A
$GNGGA,152851.00,5454.21496,N,02357.39774,E,1,12,1.11,68.3,M,26.5,M,,*73
$GNGSA,A,3,05,29,21,31,18,26,28,,,,,,1.78,1.11,1.39*10
$GNGSA,A,3,73,83,82,80,81,,,,,,,,1.78,1.11,1.39*1C
$GPGSV,3,1,12,05,35,071,19,09,04,340,,11,00,046,,16,27,304,15*7C
$GPGSV,3,2,12,18,55,198,38,21,21,041,25,26,56,278,33,28,17,222,29*74
$GPGSV,3,3,12,29,56,087,14,31,31,251,31,36,27,181,36,49,25,203,35*7C
$GLGSV,3,1,09,65,18,012,18,66,16,062,17,73,55,301,37,74,13,329,17*66
$GLGSV,3,2,09,79,03,162,16,80,51,186,36,81,27,051,31,82,77,035,27*67
$GLGSV,3,3,09,83,44,236,34*57
$GNGLL,5454.21496,N,02357.39774,E,152851.00,A,A*78
$GNRMC,152852.00,A,5454.21494,N,02357.39778,E,0.047,,120126,,,A*69
$GNVTG,,T,,M,0.047,N,0.086,K,A*30
$GNGGA,152852.00,5454.21494,N,02357.39778,E,1,12,0.93,68.1,M,26.5,M,,*77
$GNGSA,A,3,05,29,21,31,18,26,16,28,,,,,1.65,0.93,1.36*1F
$GNGSA,A,3,73,83,82,80,81,,,,,,,,1.65,0.93,1.36*14
$GPGSV,3,1,12,05,35,071,21,09,04,340,,11,00,046,,16,27,304,17*75
$GPGSV,3,2,12,18,55,198,38,21,21,041,25,26,56,278,32,28,17,222,28*74
$GPGSV,3,3,12,29,56,087,11,31,31,251,30,36,27,181,36,49,25,203,35*78
$GLGSV,3,1,09,65,18,012,17,66,16,062,20,73,55,301,36,74,13,329,16*6D
$GLGSV,3,2,09,79,03,162,17,80,51,186,36,81,27,051,31,82,77,035,27*66
$GLGSV,3,3,09,83,44,236,34*57
$GNGLL,5454.21494,N,02357.39778,E,152852.00,A,A*75
$GNRMC,152853.00,A,5454.21493,N,02357.39780,E,0.070,,120126,,,A*6C
$GNVTG,,T,,M,0.070,N,0.130,K,A*38
$GNGGA,152853.00,5454.21493,N,02357.39780,E,1,12,0.93,68.1,M,26.5,M,,*76
$GNGSA,A,3,05,29,21,31,18,26,16,28,,,,,1.65,0.93,1.36*1F
$GNGSA,A,3,73,83,82,80,81,,,,,,,,1.65,0.93,1.36*14
$GPGSV,3,1,12,05,35,071,21,09,04,340,,11,00,046,,16,27,304,18*7A
$GPGSV,3,2,12,18,55,198,38,21,21,041,25,26,56,278,33,28,17,222,28*75
$GPGSV,3,3,12,29,56,087,20,31,31,251,31,36,27,181,37,49,25,203,34*7B
$GLGSV,3,1,09,65,18,012,20,66,16,062,19,73,55,301,35,74,13,329,17*61
$GLGSV,3,2,09,79,03,162,18,80,51,186,37,81,27,051,31,82,77,035,26*69
$GLGSV,3,3,09,83,44,236,29*5B
$GNGLL,5454.21493,N,02357.39780,E,152853.00,A,A*74
$GNRMC,152854.00,A,5454.21487,N,02357.39778,E,0.201,,120126,,,A*6D
$GNVTG,,T,,M,0.201,N,0.372,K,A*38
$GNGGA,152854.00,5454.21487,N,02357.39778,E,1,12,0.98,68.0,M,26.5,M,,*79
$GNGSA,A,3,05,21,31,18,26,16,28,,,,,,1.71,0.98,1.39*15
$GNGSA,A,3,73,83,82,80,81,,,,,,,,1.71,0.98,1.39*15
$GPGSV,3,1,12,05,35,071,22,09,04,340,,11,00,046,,16,27,304,23*71
$GPGSV,3,2,12,18,55,198,39,21,21,041,24,26,57,278,30,28,17,222,26*79
$GPGSV,3,3,12,29,56,087,08,31,31,251,22,36,27,181,39,49,25,203,35*7C
$GLGSV,3,1,09,65,18,012,22,66,16,062,20,73,55,301,33,74,13,329,17*6F
$GLGSV,3,2,09,79,03,162,21,80,51,186,39,81,27,051,31,82,77,035,25*6E
$GLGSV,3,3,09,83,44,236,28*5A
$GNGLL,5454.21487,N,02357.39778,E,152854.00,A,A*71
$GNRMC,152855.00,A,5454.21487,N,02357.39773,E,0.157,,120126,,,A*67
$GNVTG,,T,,M,0.157,N,0.291,K,A*34
$GNGGA,152855.00,5454.21487,N,02357.39773,E,1,12,0.98,68.2,M,26.5,M,,*71
$GNGSA,A,3,05,21,31,18,26,16,28,,,,,,1.71,0.98,1.39*15
$GNGSA,A,3,73,83,82,80,81,,,,,,,,1.71,0.98,1.39*15
$GPGSV,3,1,12,05,35,071,22,09,04,340,,11,00,046,,16,27,304,25*77
$GPGSV,3,2,12,18,55,198,35,21,21,041,25,26,57,278,31,28,17,222,24*77
$GPGSV,3,3,12,29,56,087,,31,31,251,30,36,27,181,36,49,25,203,30*7D
$GLGSV,3,1,09,65,18,012,23,66,16,062,20,73,55,301,33,74,13,329,16*6F
$GLGSV,3,2,09,79,03,162,23,80,51,186,37,81,27,051,32,82,77,035,23*67
$GLGSV,3,3,09,83,44,236,27*55
$GNGLL,5454.21487,N,02357.39773,E,152855.00,A,A*7B
$GNRMC,152856.00,A,5454.21487,N,02357.39776,E,0.201,,120126,,,A*61
$GNVTG,,T,,M,0.201,N,0.372,K,A*38
$GNGGA,152856.00,5454.21487,N,02357.39776,E,1,12,0.98,68.3,M,26.5,M,,*76
$GNGSA,A,3,05,21,31,18,26,16,28,,,,,,1.71,0.98,1.39*15
$GNGSA,A,3,73,83,82,80,81,,,,,,,,1.71,0.98,1.39*15
$GPGSV,3,1,12,05,35,071,22,09,04,340,,11,00,046,,16,27,304,26*74
$GPGSV,3,2,12,18,55,198,37,21,21,041,22,26,57,278,38,28,17,222,21*7E
$GPGSV,3,3,12,29,56,088,17,31,31,251,34,36,27,181,34,49,25,203,28*7B
$GLGSV,3,1,09,65,18,012,21,66,16,062,19,73,55,301,36,74,13,329,16*62
$GLGSV,3,2,09,79,03,162,22,80,51,186,36,81,27,051,32,82,77,035,22*66
$GLGSV,3,3,09,83,44,236,33*50
$GNGLL,5454.21487,N,02357.39776,E,152856.00,A,A*7D
$GNRMC,152857.00,A,5454.21476,N,02357.39792,E,0.059,,120126,,,A*6B
$GNVTG,,T,,M,0.059,N,0.110,K,A*31
$GNGGA,152857.00,5454.21476,N,02357.39792,E,1,12,0.98,68.0,M,26.5,M,,*70
$GNGSA,A,3,05,21,31,18,26,16,28,,,,,,1.71,0.98,1.39*15
$GNGSA,A,3,73,83,82,80,81,,,,,,,,1.71,0.98,1.39*15
$GPGSV,3,1,12,05,35,071,22,09,04,340,,11,00,046,,16,27,304,26*74
$GPGSV,3,2,12,18,55,198,36,21,21,041,24,26,57,278,40,28,17,222,20*77
$GPGSV,3,3,12,29,56,088,15,31,31,251,30,36,27,181,33,49,25,203,27*75
$GLGSV,3,1,09,65,18,012,21,66,16,062,18,73,55,301,37,74,13,329,16*62
$GLGSV,3,2,09,79,03,162,20,80,51,186,33,81,27,051,33,82,77,035,25*67
$GLGSV,3,3,09,83,44,236,33*50
$GNGLL,5454.21476,N,02357.39792,E,152857.00,A,A*78
$GNRMC,152858.00,A,5454.21473,N,02357.39791,E,0.096,,120126,,,A*61
$GNVTG,,T,,M,0.096,N,0.177,K,A*33
$GNGGA,152858.00,5454.21473,N,02357.39791,E,1,12,0.98,67.8,M,26.5,M,,*7E
$GNGSA,A,3,05,21,31,18,26,16,28,,,,,,1.71,0.98,1.39*15
$GNGSA,A,3,73,83,82,80,81,,,,,,,,1.71,0.98,1.39*15
$GPGSV,3,1,12,05,35,071,22,09,04,340,,11,00,046,,16,27,304,26*74
$GPGSV,3,2,12,18,55,198,35,21,21,041,30,26,57,278,38,28,17,222,21*7F
$GPGSV,3,3,12,29,56,088,11,31,31,250,29,36,27,181,34,49,25,203,27*7F
$GLGSV,3,1,09,65,18,012,19,66,16,062,18,73,55,301,38,74,13,329,13*63
$GLGSV,3,2,09,79,03,162,17,80,51,186,33,81,27,051,35,82,77,035,23*63
$GLGSV,3,3,09,83,44,236,35*56
$GNGLL,5454.21473,N,02357.39791,E,152858.00,A,A*71
$GNRMC,152859.00,A,5454.21471,N,02357.39796,E,0.121,,120126,,,A*68
$GNVTG,,T,,M,0.121,N,0.225,K,A*3A
$GNGGA,152859.00,5454.21471,N,02357.39796,E,1,12,0.98,67.7,M,26.5,M,,*75
$GNGSA,A,3,05,21,31,18,26,16,28,,,,,,1.71,0.98,1.39*15
$GNGSA,A,3,73,83,82,80,81,,,,,,,,1.71,0.98,1.39*15
$GPGSV,3,1,12,05,35,071,22,09,04,340,,11,00,046,,16,27,304,25*77
$GPGSV,3,2,12,18,55,198,37,21,21,041,27,26,57,278,38,28,17,222,20*7A
$GPGSV,3,3,12,29,56,088,09,31,31,250,29,36,27,181,36,49,25,203,27*74
$GLGSV,3,1,09,65,18,012,19,66,16,062,17,73,55,301,37,74,13,329,*61
$GLGSV,3,2,09,79,03,162,19,80,51,186,35,81,27,051,34,82,77,035,21*68
$GLGSV,3,3,09,83,44,236,31*52
$GNGLL,5454.21471,N,02357.39796,E,152859.00,A,A*75
$GNRMC,152900.00,A,5454.21467,N,02357.39807,E,0.147,,120126,,,A*65
$GNVTG,,T,,M,0.147,N,0.273,K,A*39
$GNGGA,152900.00,5454.21467,N,02357.39807,E,1,12,0.98,67.5,M,26.5,M,,*7A
$GNGSA,A,3,05,21,31,18,26,16,28,,,,,,1.71,0.98,1.39*15
$GNGSA,A,3,73,83,82,80,81,,,,,,,,1.71,0.98,1.39*15
$GPGSV,3,1,12,05,35,071,22,09,04,340,,11,00,046,,16,27,304,26*74
$GPGSV,3,2,12,18,55,198,36,21,21,041,28,26,57,278,40,28,17,222,21*7A
$GPGSV,3,3,12,29,56,088,09,31,31,250,29,36,27,181,35,49,25,203,27*77
$GLGSV,3,1,09,65,18,012,19,66,16,062,17,73,55,301,36,74,13,329,*60
$GLGSV,3,2,09,79,03,162,20,80,51,186,34,81,27,051,34,82,77,035,20*62
$GLGSV,3,3,09,83,44,236,32*51
$GNGLL,5454.21467,N,02357.39807,E,152900.00,A,A*78
$GNRMC,152901.00,A,5454.21470,N,02357.39802,E,0.102,,120126,,,A*66
$GNVTG,,T,,M,0.102,N,0.189,K,A*3E
$GNGGA,152901.00,5454.21470,N,02357.39802,E,1,12,0.98,67.6,M,26.5,M,,*7B
$GNGSA,A,3,05,21,31,18,26,16,28,,,,,,1.70,0.98,1.39*14
$GNGSA,A,3,73,83,82,80,81,,,,,,,,1.70,0.98,1.39*14
$GPGSV,3,1,12,05,35,071,21,09,04,340,,11,00,046,,16,27,304,28*79
$GPGSV,3,2,12,18,55,198,36,21,21,041,26,26,57,278,41,28,17,222,19*7E
$GPGSV,3,3,12,29,56,088,10,31,31,250,29,36,27,181,35,49,25,203,28*70
$GLGSV,3,1,09,65,18,012,20,66,16,062,18,73,55,301,36,74,13,329,*65
$GLGSV,3,2,09,79,03,162,19,80,51,186,34,81,27,051,33,82,77,035,20*6F
$GLGSV,3,3,09,83,44,236,32*51
$GNGLL,5454.21470,N,02357.39802,E,152901.00,A,A*7A
$GNRMC,152902.00,A,5454.21469,N,02357.39795,E,0.026,,120126,,,A*6B
$GNVTG,,T,,M,0.026,N,0.048,K,A*35
$GNGGA,152902.00,5454.21469,N,02357.39795,E,1,12,0.98,67.5,M,26.5,M,,*72
$GNGSA,A,3,05,21,31,18,26,16,28,,,,,,1.70,0.98,1.39*14
$GNGSA,A,3,73,83,82,80,81,,,,,,,,1.70,0.98,1.39*14
$GPGSV,3,1,12,05,35,071,20,09,04,340,,11,00,046,,16,27,304,28*78
$GPGSV,3,2,12,18,55,198,36,21,21,041,24,26,57,278,40,28,17,222,18*7C
$GPGSV,3,3,12,29,56,088,09,31,31,250,29,36,27,181,34,49,25,203,28*79
$GLGSV,3,1,09,65,18,012,20,66,16,062,18,73,55,301,36,74,13,329,*65
$GLGSV,3,2,09,79,03,162,19,80,51,186,33,81,27,051,34,82,77,035,20*6F
$GLGSV,3,3,09,83,44,236,31*52
$GNGLL,5454.21469,N,02357.39795,E,152902.00,A,A*70
$GNRMC,152903.00,A,5454.21473,N,02357.39785,E,0.123,,120126,,,A*64
$GNVTG,,T,,M,0.123,N,0.228,K,A*35
$GNGGA,152903.00,5454.21473,N,02357.39785,E,1,12,0.98,67.4,M,26.5,M,,*78
$GNGSA,A,3,05,21,31,18,26,16,28,,,,,,1.70,0.98,1.39*14
$GNGSA,A,3,73,83,82,80,81,,,,,,,,1.70,0.98,1.39*14
$GPGSV,3,1,12,05,35,071,19,09,04,340,,11,00,046,,16,27,304,30*7B
$GPGSV,3,2,12,18,55,198,38,21,21,041,23,26,57,278,37,28,17,222,16*7B
$GPGSV,3,3,12,29,56,088,09,31,31,250,30,36,27,181,34,49,25,203,27*7E
$GLGSV,3,1,09,65,18,012,19,66,16,062,17,73,55,301,35,74,13,329,*63
$GLGSV,3,2,09,79,03,162,20,80,51,186,35,81,27,051,34,82,77,035,17*67
$GLGSV,3,3,09,83,44,236,31*52
$GNGLL,5454.21473,N,02357.39785,E,152903.00,A,A*7B
$GNRMC,152904.00,A,5454.21476,N,02357.39777,E,0.030,,120126,,,A*68
$GNVTG,,T,,M,0.030,N,0.056,K,A*3D
$GNGGA,152904.00,5454.21476,N,02357.39777,E,1,12,0.98,67.3,M,26.5,M,,*70
$GNGSA,A,3,05,29,21,31,18,26,16,28,,,,,1.70,0.98,1.39*1F
$GNGSA,A,3,73,83,82,80,81,,,,,,,,1.70,0.98,1.39*14
$GPGSV,3,1,12,05,35,071,19,09,04,340,,11,00,046,,16,27,304,30*7B
$GPGSV,3,2,12,18,55,198,40,21,21,041,25,26,57,278,40,28,17,222,20*77
$GPGSV,3,3,12,29,56,088,11,31,31,250,28,36,27,181,39,49,25,203,33*76
$GLGSV,3,1,09,65,18,012,17,66,16,062,18,73,55,301,35,74,13,329,*62
$GLGSV,3,2,09,79,03,162,21,80,51,186,35,81,27,051,34,82,77,035,15*64
$GLGSV,3,3,09,83,44,236,33*50
$GNGLL,5454.21476,N,02357.39777,E,152904.00,A,A*74
$GNRMC,152905.00,A,5454.21479,N,02357.39781,E,0.206,,120126,,,A*68
$GNVTG,,T,,M,0.206,N,0.381,K,A*33
$GNGGA,152905.00,5454.21479,N,02357.39781,E,1,12,0.98,67.4,M,26.5,M,,*70
$GNGSA,A,3,05,29,21,31,18,26,16,28,,,,,1.70,0.98,1.39*1F
$GNGSA,A,3,73,83,82,80,81,,,,,,,,1.70,0.98,1.39*14
$GPGSV,3,1,12,05,35,071,17,09,04,340,,11,00,046,,16,27,304,30*75
$GPGSV,3,2,12,18,55,198,36,21,21,041,24,26,57,278,38,28,17,222,19*72
$GPGSV,3,3,12,29,56,088,14,31,31,250,32,36,27,181,33,49,25,203,26*76
$GLGSV,3,1,09,65,18,012,16,66,16,062,20,73,55,301,35,74,13,329,*68
$GLGSV,3,2,09,79,03,162,21,80,51,186,32,81,27,051,33,82,77,035,18*69
$GLGSV,3,3,09,83,44,236,28*5A
$GNGLL,5454.21479,N,02357.39781,E,152905.00,A,A*73
$GNRMC,152906.00,A,5454.21479,N,02357.39784,E,0.119,,120126,,,A*63
$GNVTG,,T,,M,0.119,N,0.220,K,A*34
$GNGGA,152906.00,5454.21479,N,02357.39784,E,1,12,0.98,67.5,M,26.5,M,,*77
$GNGSA,A,3,05,29,21,31,18,26,16,28,,,,,1.70,0.98,1.39*1F
$GNGSA,A,3,73,83,82,80,81,,,,,,,,1.70,0.98,1.39*14
$GPGSV,3,1,12,05,35,071,14,09,04,340,,11,00,046,,16,27,304,29*7E
$GPGSV,3,2,12,18,55,198,38,21,21,041,21,26,57,278,36,28,17,222,20*7D
$GPGSV,3,3,12,29,56,088,13,31,31,250,32,36,27,181,36,49,25,203,*70
$GLGSV,3,1,09,65,18,012,14,66,16,062,19,73,55,301,37,74,13,329,*62
$GLGSV,3,2,09,79,03,162,21,80,51,186,35,81,27,051,33,82,77,035,18*6E
$GLGSV,3,3,09,83,44,236,33*50
$GNGLL,5454.21479,N,02357.39784,E,152906.00,A,A*75
$GNRMC,152907.00,A,5454.21479,N,02357.39783,E,0.012,,120126,,,A*6F
$GNVTG,,T,,M,0.012,N,0.022,K,A*3E
$GNGGA,152907.00,5454.21479,N,02357.39783,E,1,12,0.98,67.5,M,26.5,M,,*71
$GNGSA,A,3,05,29,21,31,18,26,16,28,,,,,1.70,0.98,1.39*1F
$GNGSA,A,3,73,83,82,80,81,,,,,,,,1.70,0.98,1.39*14
$GPGSV,3,1,12,05,35,071,14,09,04,340,,11,00,046,,16,27,304,28*7F
$GPGSV,3,2,12,18,55,198,37,21,21,041,23,26,57,278,39,28,17,222,23*7C
$GPGSV,3,3,12,29,56,088,11,31,31,250,32,36,27,181,28,49,25,203,*7D
$GLGSV,3,1,09,65,18,012,14,66,16,062,20,73,55,301,36,74,13,329,*69
$GLGSV,3,2,09,79,03,162,19,80,51,186,36,81,27,051,33,82,77,035,19*67
$GLGSV,3,3,09,83,44,236,37*54
$GNGLL,5454.21479,N,02357.39783,E,152907.00,A,A*73
$GNRMC,152908.00,A,5454.21478,N,02357.39775,E,0.126,,120126,,,A*6E
$GNVTG,,T,,M,0.126,N,0.233,K,A*3A
$GNGGA,152908.00,5454.21478,N,02357.39775,E,1,12,0.98,67.3,M,26.5,M,,*70
$GNGSA,A,3,05,21,31,18,26,16,28,,,,,,1.70,0.98,1.39*14
$GNGSA,A,3,73,83,82,80,81,,,,,,,,1.70,0.98,1.39*14
$GPGSV,3,1,12,05,35,071,16,09,04,340,,11,00,046,,16,27,304,29*7C
$GPGSV,3,2,12,18,55,198,36,21,21,041,25,26,57,278,39,28,17,222,21*79
$GPGSV,3,3,12,29,56,088,09,31,31,250,30,36,27,181,33,49,25,203,*7C
$GLGSV,3,1,09,65,18,012,15,66,16,062,20,73,55,301,36,74,13,329,*68
$GLGSV,3,2,09,79,03,162,20,80,51,186,35,81,27,051,33,82,77,035,20*64
$GLGSV,3,3,09,83,44,236,35*56
$GNGLL,5454.21478,N,02357.39775,E,152908.00,A,A*74
$GNRMC,152909.00,A,5454.21476,N,02357.39770,E,0.074,,120126,,,A*62
$GNVTG,,T,,M,0.074,N,0.138,K,A*34
$GNGGA,152909.00,5454.21476,N,02357.39770,E,1,12,0.92,67.5,M,26.5,M,,*76
$GNGSA,A,3,05,21,31,18,26,16,28,,,,,,1.67,0.92,1.39*18
$GNGSA,A,3,73,83,82,80,81,,,,,,,,1.67,0.92,1.39*18
$GPGSV,3,1,12,05,35,071,16,09,04,340,,11,00,046,,16,27,304,29*7C
$GPGSV,3,2,12,18,55,198,35,21,21,041,21,26,57,278,37,28,17,222,18*7A
$GPGSV,3,3,12,29,56,088,09,31,31,250,30,36,27,181,32,49,25,203,*7D
$GLGSV,3,1,09,65,18,012,18,66,16,062,20,73,55,301,36,74,13,329,*65
$GLGSV,3,2,09,79,03,162,22,80,51,186,35,81,27,051,31,82,77,035,20*64
$GLGSV,3,3,09,83,44,236,34*57
$GNGLL,5454.21476,N,02357.39770,E,152909.00,A,A*7E
$GNRMC,152910.00,A,5454.21473,N,02357.39763,E,0.093,,120126,,,A*64
$GNVTG,,T,,M,0.093,N,0.172,K,A*33
$GNGGA,152910.00,5454.21473,N,02357.39763,E,1,12,0.92,67.5,M,26.5,M,,*79
$GNGSA,A,3,05,21,31,18,26,16,28,,,,,,1.67,0.92,1.39*18
$GNGSA,A,3,73,83,82,80,81,,,,,,,,1.67,0.92,1.39*18
$GPGSV,3,1,12,05,35,071,16,09,04,340,,11,00,046,,16,27,304,30*74
$GPGSV,3,2,12,18,55,198,36,21,21,041,19,26,57,278,37,28,17,222,15*7F
$GPGSV,3,3,12,29,56,088,09,31,31,250,31,36,27,181,31,49,25,203,*7F
$GLGSV,3,1,09,65,18,012,20,66,16,062,20,73,55,301,34,74,13,329,*6C
$GLGSV,3,2,09,79,03,162,22,80,51,186,35,81,27,051,32,82,77,035,22*65
$GLGSV,3,3,09,83,44,236,35*56
$GNGLL,5454.21473,N,02357.39763,E,152910.00,A,A*71
$GNRMC,152911.00,A,5454.21473,N,02357.39761,E,0.105,,120126,,,A*69
$GNVTG,,T,,M,0.105,N,0.195,K,A*34
$GNGGA,152911.00,5454.21473,N,02357.39761,E,1,12,0.99,67.6,M,26.5,M,,*72
$GNGSA,A,3,05,21,31,18,26,16,28,,,,,,1.70,0.99,1.39*15
$GNGSA,A,3,73,83,82,80,81,,,,,,,,1.70,0.99,1.39*15
$GPGSV,3,1,12,05,35,071,16,09,04,340,,11,00,046,,16,27,304,30*74
$GPGSV,3,2,12,18,55,198,36,21,21,041,17,26,57,278,38,28,17,222,16*7D
$GPGSV,3,3,12,29,56,088,08,31,31,250,31,36,27,181,31,49,25,203,*7E
$GLGSV,3,1,09,65,18,012,21,66,16,062,21,73,55,301,37,74,13,329,*6F
$GLGSV,3,2,09,79,03,162,21,80,51,186,34,81,27,051,33,82,77,035,24*60
$GLGSV,3,3,09,83,44,236,33*50
$GNGLL,5454.21473,N,02357.39761,E,152911.00,A,A*72
$GNRMC,152912.00,A,5454.21469,N,02357.39757,E,0.080,,120126,,,A*68
$GNVTG,,T,,M,0.080,N,0.148,K,A*38
$GNGGA,152912.00,5454.21469,N,02357.39757,E,1,12,0.92,67.6,M,26.5,M,,*74
$GNGSA,A,3,05,29,21,31,18,26,16,28,,,,,1.67,0.92,1.39*13
$GNGSA,A,3,73,83,82,80,81,,,,,,,,1.67,0.92,1.39*18
$GPGSV,3,1,12,05,35,071,16,09,04,340,,11,00,046,,16,27,304,30*74
$GPGSV,3,2,12,18,55,198,35,21,21,041,16,26,57,278,38,28,17,222,16*7F
$GPGSV,3,3,12,29,56,088,11,31,31,250,29,36,27,181,35,49,25,203,*7B
$GLGSV,3,1,09,65,18,012,23,66,16,062,22,73,55,301,36,74,13,329,*6F
$GLGSV,3,2,09,79,03,162,22,80,51,186,37,81,27,051,31,82,77,035,25*63
$GLGSV,3,3,09,83,44,236,34*57
$GNGLL,5454.21469,N,02357.39757,E,152912.00,A,A*7F
$GNRMC,152913.00,A,5454.21466,N,02357.39757,E,0.033,,120126,,,A*6E
$GNVTG,,T,,M,0.033,N,0.061,K,A*3A
$GNGGA,152913.00,5454.21466,N,02357.39757,E,1,12,0.92,67.7,M,26.5,M,,*7B
$GNGSA,A,3,05,21,31,18,26,16,28,,,,,,1.67,0.92,1.39*18
$GNGSA,A,3,73,83,82,80,81,,,,,,,,1.67,0.92,1.39*18
$GPGSV,3,1,12,05,35,071,11,09,04,340,,11,00,046,,16,27,304,30*73
$GPGSV,3,2,12,18,55,198,32,21,21,041,18,26,57,278,37,28,17,222,18*77
$GPGSV,3,3,12,29,56,088,10,31,31,250,30,36,27,181,,49,25,203,*74
$GLGSV,3,1,09,65,18,012,26,66,16,062,24,73,55,301,36,74,13,329,*6C
$GLGSV,3,2,09,79,03,162,21,80,51,186,35,81,27,051,30,82,77,035,25*63
$GLGSV,3,3,09,83,44,236,37*54
$GNGLL,5454.21466,N,02357.39757,E,152913.00,A,A*71
$GNRMC,152914.00,A,5454.21460,N,02357.39760,E,0.064,,120126,,,A*69
$GNVTG,,T,,M,0.064,N,0.119,K,A*36
$GNGGA,152914.00,5454.21460,N,02357.39760,E,1,12,0.89,67.9,M,26.5,M,,*7A
$GNGSA,A,3,05,29,21,31,18,26,16,28,,,,,1.62,0.89,1.35*10
$GNGSA,A,3,73,83,82,80,81,,,,,,,,1.62,0.89,1.35*1B
$GPGSV,3,1,12,05,35,071,12,09,04,340,19,11,00,046,,16,27,304,30*78
$GPGSV,3,2,12,18,55,198,33,21,21,041,16,26,57,278,34,28,17,222,24*74
$GPGSV,3,3,12,29,56,088,12,31,31,250,32,36,27,181,,49,25,203,*74
$GLGSV,3,1,09,65,18,012,25,66,16,062,24,73,55,301,35,74,13,329,*6C
$GLGSV,3,2,09,79,03,162,20,80,51,186,37,81,27,051,29,82,77,035,24*69
$GLGSV,3,3,09,83,44,236,37*54
$GNGLL,5454.21460,N,02357.39760,E,152914.00,A,A*74
$GNRMC,152915.00,A,5454.21458,N,02357.39758,E,0.020,,120126,,,A*68
$GNVTG,,T,,M,0.020,N,0.036,K,A*3A
$GNGGA,152915.00,5454.21458,N,02357.39758,E,1,12,0.92,68.0,M,26.5,M,,*77
$GNGSA,A,3,05,29,21,31,18,26,16,28,,,,,1.67,0.92,1.39*13
$GNGSA,A,3,73,83,82,80,81,,,,,,,,1.67,0.92,1.39*18
$GPGSV,3,1,12,05,35,071,15,09,04,340,18,11,00,046,,16,27,304,30*7E
$GPGSV,3,2,12,18,55,198,37,21,21,041,18,26,57,278,39,28,17,222,26*71
$GPGSV,3,3,12,29,56,088,12,31,31,250,32,36,27,181,,49,25,203,*74
$GLGSV,3,1,09,65,18,012,24,66,16,062,23,73,55,301,35,74,13,329,*6A
$GLGSV,3,2,09,79,03,162,18,80,51,186,34,81,27,051,30,82,77,035,24*69
$GLGSV,3,3,09,83,44,236,38*5B
$GNGLL,5454.21458,N,02357.39758,E,152915.00,A,A*75
$GNRMC,152916.00,A,5454.21456,N,02357.39764,E,0.037,,120126,,,A*6C
$GNVTG,,T,,M,0.037,N,0.069,K,A*36
$GNGGA,152916.00,5454.21456,N,02357.39764,E,1,12,0.92,68.3,M,26.5,M,,*76
$GNGSA,A,3,05,21,31,18,26,16,28,,,,,,1.67,0.92,1.39*18
$GNGSA,A,3,73,83,82,80,81,,,,,,,,1.67,0.92,1.39*18
$GPGSV,3,1,12,05,35,071,14,09,04,340,17,11,00,046,,16,27,304,30*70
$GPGSV,3,2,12,18,55,198,33,21,21,041,20,26,57,278,36,28,17,222,27*70
$GPGSV,3,3,12,29,56,088,09,31,31,250,31,36,27,181,,49,25,203,*7D
$GLGSV,3,1,09,65,17,012,22,66,16,062,23,73,55,301,36,74,13,329,*60
$GLGSV,3,2,09,79,03,162,16,80,51,186,34,81,27,051,31,82,77,035,24*66
$GLGSV,3,3,09,83,44,236,35*56
$GNGLL,5454.21456,N,02357.39764,E,152916.00,A,A*77
$GNRMC,152917.00,A,5454.21458,N,02357.39757,E,0.277,,120126,,,A*65
$GNVTG,,T,,M,0.277,N,0.513,K,A*38
$GNGGA,152917.00,5454.21458,N,02357.39757,E,1,12,0.99,68.5,M,26.5,M,,*74
$GNGSA,A,3,05,21,31,18,26,16,28,,,,,,1.70,0.99,1.39*15
$GNGSA,A,3,73,83,82,80,81,,,,,,,,1.70,0.99,1.39*15
$GPGSV,3,1,12,05,35,071,09,09,04,340,16,11,00,046,,16,27,304,29*75
$GPGSV,3,2,12,18,55,198,36,21,21,041,21,26,57,278,38,28,17,222,26*7B
$GPGSV,3,3,12,29,56,088,09,31,31,250,30,36,27,181,,49,25,203,*7C
$GLGSV,3,1,09,65,17,012,21,66,17,061,22,73,55,301,35,74,13,329,*63
$GLGSV,3,2,09,79,03,162,15,80,51,186,31,81,27,051,32,82,77,035,25*62
$GLGSV,3,3,09,83,44,236,36*55
$GNGLL,5454.21458,N,02357.39757,E,152917.00,A,A*78
$GNRMC,152918.00,A,5454.21461,N,02357.39754,E,0.260,,120126,,,A*65
$GNVTG,,T,,M,0.260,N,0.481,K,A*34
$GNGGA,152918.00,5454.21461,N,02357.39754,E,1,12,0.92,68.8,M,26.5,M,,*74
$GNGSA,A,3,05,21,31,18,26,16,28,,,,,,1.67,0.92,1.39*18
$GNGSA,A,3,73,83,82,80,81,,,,,,,,1.67,0.92,1.39*18
$GPGSV,3,1,12,05,35,071,18,09,04,340,15,11,00,046,,16,27,304,29*76
$GPGSV,3,2,12,18,55,198,37,21,21,041,21,26,57,278,36,28,17,222,23*71
$GPGSV,3,3,12,29,56,088,09,31,31,250,29,36,27,181,,49,25,203,*74
$GLGSV,3,1,09,65,17,012,22,66,17,061,22,73,55,301,34,74,13,329,*61
$GLGSV,3,2,09,79,03,162,22,80,51,186,34,81,27,051,25,82,77,035,23*63
$GLGSV,3,3,09,83,44,236,29*5B
$GNGLL,5454.21461,N,02357.39754,E,152918.00,A,A*7E
$GNRMC,152919.00,A,5454.21463,N,02357.39760,E,0.054,,120126,,,A*64
$GNVTG,,T,,M,0.054,N,0.100,K,A*3D
$GNGGA,152919.00,5454.21463,N,02357.39760,E,1,12,0.92,69.0,M,26.5,M,,*79
$GNGSA,A,3,05,21,31,18,26,16,28,,,,,,1.67,0.92,1.39*18
$GNGSA,A,3,73,83,82,80,81,,,,,,,,1.67,0.92,1.39*18
$GPGSV,3,1,12,05,35,071,19,09,04,340,14,11,00,046,,16,27,304,28*77
$GPGSV,3,2,12,18,55,198,37,21,21,041,20,26,57,278,32,28,17,222,21*76
$GPGSV,3,3,12,29,56,088,08,31,31,250,19,36,27,181,,49,25,203,*76
$GLGSV,3,1,09,65,17,012,22,66,17,061,21,73,55,301,34,74,13,329,*62
$GLGSV,3,2,09,79,03,162,24,80,51,186,29,81,27,051,25,82,77,035,21*6B
$GLGSV,3,3,09,83,44,236,29*5B
$GNGLL,5454.21463,N,02357.39760,E,152919.00,A,A*7A
$GNRMC,152920.00,A,5454.21471,N,02357.39780,E,0.123,,120126,,,A*62
$GNVTG,,T,,M,0.123,N,0.228,K,A*35
$GNGGA,152920.00,5454.21471,N,02357.39780,E,1,12,1.04,69.0,M,26.5,M,,*70
$GNGSA,A,3,05,21,31,18,26,16,28,,,,,,2.10,1.04,1.83*14
$GNGSA,A,3,73,83,82,80,81,,,,,,,,2.10,1.04,1.83*14
$GPGSV,3,1,12,05,35,071,16,09,04,340,14,11,00,046,,16,27,304,30*71
$GPGSV,3,2,12,18,55,198,34,21,21,041,29,26,57,278,35,28,17,222,28*72
$GPGSV,3,3,12,29,56,088,09,31,31,250,25,36,27,181,,49,25,203,*78
$GLGSV,3,1,09,65,17,012,20,66,17,061,22,73,55,301,34,74,13,329,*63
$GLGSV,3,2,09,79,03,162,24,80,51,186,31,81,27,051,33,82,77,035,21*65
$GLGSV,3,3,09,83,44,236,33*50
$GNGLL,5454.21471,N,02357.39780,E,152920.00,A,A*7D
$GNRMC,152921.00,A,5454.21470,N,02357.39778,E,0.027,,120126,,,A*60
$GNVTG,,T,,M,0.027,N,0.050,K,A*3D
$GNGGA,152921.00,5454.21470,N,02357.39778,E,1,12,1.04,69.0,M,26.5,M,,*77
$GNGSA,A,3,05,29,21,31,18,26,16,28,,,,,2.10,1.04,1.83*1F
$GNGSA,A,3,73,83,82,80,81,,,,,,,,2.10,1.04,1.83*14
$GPGSV,3,1,12,05,35,071,16,09,04,340,14,11,00,046,,16,27,304,30*71
$GPGSV,3,2,12,18,55,198,34,21,21,041,18,26,57,278,36,28,17,222,27*7C
$GPGSV,3,3,12,29,56,088,12,31,31,250,25,36,27,181,,49,25,203,*72
$GLGSV,3,1,09,65,17,012,19,66,17,061,21,73,55,301,35,74,13,329,*6B
$GLGSV,3,2,09,79,03,162,21,80,51,186,30,81,27,051,34,82,77,035,24*63
$GLGSV,3,3,09,83,44,236,34*57
$GNGLL,5454.21470,N,02357.39778,E,152921.00,A,A*7A
$GNRMC,152922.00,A,5454.21472,N,02357.39779,E,0.140,,120126,,,A*60
$GNVTG,,T,,M,0.140,N,0.260,K,A*3C
$GNGGA,152922.00,5454.21472,N,02357.39779,E,1,12,0.92,69.3,M,26.5,M,,*7A
$GNGSA,A,3,05,29,21,31,18,26,16,28,,,,,1.67,0.92,1.39*13
$GNGSA,A,3,73,83,82,80,81,,,,,,,,1.67,0.92,1.39*18
$GPGSV,3,1,12,05,35,071,19,09,04,340,16,11,00,046,,16,27,304,30*7C
$GPGSV,3,2,12,18,55,198,36,21,21,041,29,26,57,278,35,28,17,222,27*7F
$GPGSV,3,3,12,29,56,088,14,31,31,250,32,36,27,181,,49,25,203,*72
$GLGSV,3,1,09,65,17,012,21,66,17,061,20,73,55,301,35,74,13,329,*61
$GLGSV,3,2,09,79,03,162,19,80,51,186,34,81,27,051,31,82,77,035,26*6B
$GLGSV,3,3,09,83,44,236,33*50
$GNGLL,5454.21472,N,02357.39779,E,152922.00,A,A*7A
$GNRMC,152923.00,A,5454.21465,N,02357.39778,E,0.058,,120126,,,A*6E
$GNVTG,,T,,M,0.058,N,0.107,K,A*36
$GNGGA,152923.00,5454.21465,N,02357.39778,E,1,12,1.04,69.0,M,26.5,M,,*71
$GNGSA,A,3,05,29,21,31,18,26,16,28,,,,,2.10,1.04,1.83*1F
$GNGSA,A,3,73,83,82,80,81,,,,,,,,2.10,1.04,1.83*14
$GPGSV,3,1,12,05,35,071,20,09,04,340,15,11,00,046,,16,27,304,30*75
$GPGSV,3,2,12,18,55,198,36,21,21,041,30,26,57,278,30,28,17,222,23*76
$GPGSV,3,3,12,29,56,088,15,31,31,250,23,36,27,181,,49,25,203,*73
$GLGSV,3,1,09,65,17,012,23,66,17,061,19,73,55,301,36,74,13,329,*6A
$GLGSV,3,2,09,79,03,162,20,80,51,186,39,81,27,051,29,82,77,035,25*66
$GLGSV,3,3,09,83,44,236,30*53
$GNGLL,5454.21465,N,02357.39778,E,152923.00,A,A*7C
$GNRMC,152924.00,A,5454.21456,N,02357.39789,E,0.103,,120126,,,A*68
$GNVTG,,T,,M,0.103,N,0.191,K,A*36
$GNGGA,152924.00,5454.21456,N,02357.39789,E,1,12,1.04,69.1,M,26.5,M,,*79
$GNGSA,A,3,05,29,21,31,18,26,16,28,,,,,2.10,1.04,1.83*1F
$GNGSA,A,3,73,83,82,80,81,,,,,,,,2.10,1.04,1.83*14
$GPGSV,3,1,12,05,35,071,21,09,04,340,16,11,00,046,,16,27,304,31*76
$GPGSV,3,2,12,18,55,198,36,21,21,041,31,26,57,278,33,28,17,222,20*77
$GPGSV,3,3,12,29,56,088,17,31,31,250,20,36,27,181,,49,25,203,*72
$GLGSV,3,1,09,65,17,012,25,66,17,061,19,73,55,300,36,74,13,329,*6D
$GLGSV,3,2,09,79,03,162,22,80,51,186,37,81,27,051,29,82,77,035,26*69
$GLGSV,3,3,09,83,44,236,30*53
$GNGLL,5454.21456,N,02357.39789,E,152924.00,A,A*75
$GNRMC,152925.00,A,5454.21448,N,02357.39785,E,0.016,,120126,,,A*6F
$GNVTG,,T,,M,0.016,N,0.031,K,A*38
$GNGGA,152925.00,5454.21448,N,02357.39785,E,1,12,1.04,69.1,M,26.5,M,,*7B
$GNGSA,A,3,05,29,21,31,18,26,16,28,,,,,2.10,1.04,1.83*1F
$GNGSA,A,3,73,83,82,80,81,,,,,,,,2.10,1.04,1.83*14
$GPGSV,3,1,12,05,35,071,20,09,04,340,15,11,00,046,,16,27,304,31*74
$GPGSV,3,2,12,18,55,198,37,21,21,041,29,26,57,278,33,28,17,222,21*7E
$GPGSV,3,3,12,29,56,088,16,31,31,250,19,36,27,181,,49,25,203,*79
$GLGSV,3,1,09,65,17,012,22,66,17,061,19,73,55,300,36,74,14,329,*6D
$GLGSV,3,2,09,79,03,162,20,80,51,186,37,81,27,051,35,82,77,035,26*66
$GLGSV,3,3,09,83,44,236,35*56
$GNGLL,5454.21448,N,02357.39785,E,152925.00,A,A*77
$GNRMC,152926.00,A,5454.21448,N,02357.39781,E,0.080,,120126,,,A*67
$GNVTG,,T,,M,0.080,N,0.148,K,A*38
$GNGGA,152926.00,5454.21448,N,02357.39781,E,1,12,0.92,69.4,M,26.5,M,,*77
$GNGSA,A,3,05,29,21,31,18,26,16,28,,,,,1.66,0.92,1.38*13
$GNGSA,A,3,73,83,82,80,81,,,,,,,,1.66,0.92,1.38*18
$GPGSV,3,1,12,05,35,071,19,09,04,340,13,11,00,046,,16,27,304,30*79
$GPGSV,3,2,12,18,55,198,37,21,21,041,28,26,57,278,31,28,17,222,23*7F
$GPGSV,3,3,12,29,56,088,15,31,31,250,22,36,27,181,,49,25,203,*72
$GLGSV,3,1,09,65,17,012,19,66,17,061,21,73,55,300,35,74,14,329,*6D
$GLGSV,3,2,09,79,03,162,17,80,51,186,36,81,27,051,36,82,77,035,26*60
$GLGSV,3,3,09,83,44,236,36*55
$GNGLL,5454.21448,N,02357.39781,E,152926.00,A,A*70
$GNRMC,152927.00,A,5454.21445,N,02357.39782,E,0.043,,120126,,,A*67
$GNVTG,,T,,M,0.043,N,0.080,K,A*32
$GNGGA,152927.00,5454.21445,N,02357.39782,E,1,12,0.92,69.7,M,26.5,M,,*7B
$GNGSA,A,3,05,29,21,31,18,26,16,28,,,,,1.66,0.92,1.38*13
$GNGSA,A,3,73,83,82,80,81,,,,,,,,1.66,0.92,1.38*18
$GPGSV,3,1,12,05,35,071,18,09,04,340,14,11,00,046,,16,27,304,29*77
$GPGSV,3,2,12,18,55,198,37,21,21,041,28,26,57,278,32,28,17,222,25*7A
$GPGSV,3,3,12,29,56,088,15,31,31,250,25,36,27,181,,49,25,203,*75
$GLGSV,3,1,09,65,17,012,13,66,17,061,21,73,55,300,35,74,14,329,*67
$GLGSV,3,2,09,79,03,162,10,80,51,186,36,81,27,051,36,82,77,035,25*64
$GLGSV,3,3,09,83,44,236,32*51
$GNGLL,5454.21445,N,02357.39782,E,152927.00,A,A*7F
$GNRMC,152928.00,A,5454.21445,N,02357.39785,E,0.083,,120126,,,A*63
$GNVTG,,T,,M,0.083,N,0.153,K,A*31
$GNGGA,152928.00,5454.21445,N,02357.39785,E,1,12,0.92,70.0,M,26.5,M,,*7C
$GNGSA,A,3,05,29,21,31,18,26,16,28,,,,,1.66,0.92,1.38*13
$GNGSA,A,3,73,83,82,80,81,,,,,,,,1.66,0.92,1.38*18
$GPGSV,3,1,12,05,35,071,17,09,04,340,15,11,00,046,,16,27,304,28*78
$GPGSV,3,2,12,18,55,198,37,21,21,041,26,26,57,278,32,28,17,222,24*75
$GPGSV,3,3,12,29,56,088,14,31,31,250,26,36,27,181,,49,25,203,*77
$GLGSV,3,1,09,65,17,012,12,66,17,061,20,73,55,300,36,74,14,329,*64
$GLGSV,3,2,09,79,03,162,08,80,51,186,36,81,27,051,36,82,77,035,25*6D
$GLGSV,3,3,09,83,44,236,32*51
$GNGLL,5454.21445,N,02357.39785,E,152928.00,A,A*77
$GNRMC,152929.00,A,5454.21448,N,02357.39797,E,0.070,,120126,,,A*60
$GNVTG,,T,,M,0.070,N,0.130,K,A*38
$GNGGA,152929.00,5454.21448,N,02357.39797,E,1,12,0.92,70.2,M,26.5,M,,*71
$GNGSA,A,3,05,29,21,31,18,26,16,28,,,,,1.66,0.92,1.38*13
$GNGSA,A,3,73,83,82,80,81,,,,,,,,1.66,0.92,1.38*18
$GPGSV,3,1,12,05,35,071,16,09,04,340,15,11,00,046,,16,27,304,29*78
$GPGSV,3,2,12,18,55,198,37,21,21,041,24,26,57,278,33,28,17,222,24*76
$GPGSV,3,3,12,29,56,088,14,31,31,250,25,36,27,181,,49,25,203,*74
$GLGSV,3,1,09,65,17,012,,66,17,061,18,73,55,300,36,74,14,329,*6C
$GLGSV,3,2,09,79,03,162,12,80,51,186,36,81,27,051,36,82,77,035,25*66
$GLGSV,3,3,09,83,44,236,32*51
$GNGLL,5454.21448,N,02357.39797,E,152929.00,A,A*78
$GNRMC,152930.00,A,5454.21454,N,02357.39808,E,0.115,,120126,,,A*6E
$GNVTG,,T,,M,0.115,N,0.212,K,A*39
$GNGGA,152930.00,5454.21454,N,02357.39808,E,1,12,0.92,70.3,M,26.5,M,,*7C
$GNGSA,A,3,05,29,21,31,18,26,16,28,,,,,1.66,0.92,1.38*13
$GNGSA,A,3,73,83,82,80,81,,,,,,,,1.66,0.92,1.38*18
$GPGSV,3,1,12,05,35,071,17,09,04,340,15,11,00,046,,16,27,304,29*79
$GPGSV,3,2,12,18,55,198,38,21,21,041,25,26,57,278,32,28,17,222,23*7E
$GPGSV,3,3,12,29,56,088,14,31,31,250,24,36,27,181,38,49,25,203,*7E
$GLGSV,3,1,09,65,17,012,,66,17,061,17,73,55,300,35,74,14,329,*60
$GLGSV,3,2,09,79,03,162,16,80,51,186,36,81,27,051,35,82,77,035,24*60
$GLGSV,3,3,09,83,44,236,32*51
$GNGLL,5454.21454,N,02357.39808,E,152930.00,A,A*74
$GNRMC,152931.00,A,5454.21462,N,02357.39817,E,0.131,,120126,,,A*62
$GNVTG,,T,,M,0.131,N,0.243,K,A*3B
$GNGGA,152931.00,5454.21462,N,02357.39817,E,1,12,0.92,70.4,M,26.5,M,,*71
$GNGSA,A,3,05,29,21,31,18,26,16,28,,,,,1.66,0.92,1.38*13
$GNGSA,A,3,73,83,82,80,81,,,,,,,,1.66,0.92,1.38*18
$GPGSV,3,1,12,05,35,071,16,09,04,340,14,11,00,046,,16,27,304,31*70
$GPGSV,3,2,12,18,55,198,35,21,21,041,25,26,57,278,30,28,17,222,21*73
$GPGSV,3,3,12,29,56,088,13,31,31,250,24,36,27,181,36,49,25,203,*77
$GLGSV,3,1,09,65,17,012,,66,17,061,19,73,55,300,33,74,14,329,*68
$GLGSV,3,2,09,79,03,162,16,80,51,186,30,81,27,051,36,82,77,035,24*65
$GLGSV,3,3,09,83,44,236,33*50
$GNGLL,5454.21462,N,02357.39817,E,152931.00,A,A*7E
$GNRMC,152932.00,A,5454.21466,N,02357.39821,E,0.053,,120126,,,A*65
$GNVTG,,T,,M,0.053,N,0.097,K,A*35
$GNGGA,152932.00,5454.21466,N,02357.39821,E,1,12,0.99,70.4,M,26.5,M,,*78
$GNGSA,A,3,29,21,31,18,26,16,28,,,,,,1.70,0.99,1.38*1A
$GNGSA,A,3,73,83,82,80,81,,,,,,,,1.70,0.99,1.38*14
$GPGSV,3,1,12,05,35,071,16,09,04,340,14,11,00,046,,16,27,304,31*70
$GPGSV,3,2,12,18,55,198,38,21,21,041,25,26,57,278,35,28,17,222,20*7A
$GPGSV,3,3,12,29,56,088,10,31,31,250,23,36,27,181,37,49,25,203,*72
$GLGSV,3,1,09,65,17,012,,66,17,061,17,73,55,300,36,74,14,329,*63
$GLGSV,3,2,09,79,03,162,16,80,51,186,35,81,27,052,35,82,77,035,24*60
$GLGSV,3,3,09,83,44,236,33*50
$GNGLL,5454.21466,N,02357.39821,E,152932.00,A,A*7C
$GNRMC,152933.00,A,5454.21466,N,02357.39827,E,0.016,,120126,,,A*63
$GNVTG,,T,,M,0.016,N,0.030,K,A*39
$GNGGA,152933.00,5454.21466,N,02357.39827,E,1,12,0.92,70.4,M,26.5,M,,*74
$GNGSA,A,3,05,29,21,31,18,26,16,28,,,,,1.66,0.92,1.38*13
$GNGSA,A,3,73,83,82,80,81,,,,,,,,1.66,0.92,1.38*18
$GPGSV,3,1,12,05,35,071,14,09,04,340,14,11,00,046,,16,27,304,30*73
$GPGSV,3,2,12,18,55,198,38,21,21,041,25,26,57,278,32,28,17,222,21*7C
$GPGSV,3,3,12,29,56,088,10,31,31,250,25,36,27,181,30,49,25,203,*73
$GLGSV,3,1,09,65,17,012,,66,17,061,16,73,55,300,36,74,14,329,*62
$GLGSV,3,2,09,79,03,162,17,80,51,186,35,81,27,052,35,82,76,036,24*63
$GLGSV,3,3,09,83,44,236,36*55
$GNGLL,5454.21466,N,02357.39827,E,152933.00,A,A*7B
$GNRMC,152934.00,A,5454.21471,N,02357.39828,E,0.085,,120126,,,A*67
$GNVTG,,T,,M,0.085,N,0.157,K,A*33
$GNGGA,152934.00,5454.21471,N,02357.39828,E,1,12,0.92,70.3,M,26.5,M,,*7D
$GNGSA,A,3,05,29,21,31,18,26,16,28,,,,,1.66,0.92,1.38*13
$GNGSA,A,3,73,83,82,80,81,,,,,,,,1.66,0.92,1.38*18
$GPGSV,3,1,12,05,35,071,14,09,04,340,14,11,00,046,,16,27,304,30*73
$GPGSV,3,2,12,18,55,198,39,21,21,041,25,26,57,278,36,28,17,222,22*7A
$GPGSV,3,3,12,29,56,088,12,31,31,250,24,36,27,181,34,49,25,203,*74
$GLGSV,3,1,09,65,17,012,,66,17,061,15,73,55,300,35,74,14,329,*62
$GLGSV,3,2,09,79,03,162,17,80,51,186,34,81,27,052,34,82,76,036,23*64
$GLGSV,3,3,09,83,45,236,35*57
$GNGLL,5454.21471,N,02357.39828,E,152934.00,A,A*75
$GNRMC,152935.00,A,5454.21475,N,02357.39831,E,0.079,,120126,,,A*69
$GNVTG,,T,,M,0.079,N,0.145,K,A*33
$GNGGA,152935.00,5454.21475,N,02357.39831,E,1,12,0.92,70.2,M,26.5,M,,*71
$GNGSA,A,3,05,29,21,31,18,26,16,28,,,,,1.66,0.92,1.38*13
$GNGSA,A,3,73,83,82,80,81,,,,,,,,1.66,0.92,1.38*18
$GPGSV,3,1,12,05,35,071,10,09,04,340,15,11,00,046,,16,27,304,30*76
$GPGSV,3,2,12,18,55,198,40,21,21,041,25,26,57,278,36,28,17,222,23*75
$GPGSV,3,3,12,29,56,088,11,31,31,250,25,36,27,181,34,49,25,203,*76
$GLGSV,3,1,09,65,17,012,24,66,17,061,13,73,55,300,36,74,14,329,*61
$GLGSV,3,2,09,79,03,162,18,80,51,186,35,81,27,052,34,82,76,036,23*6A
$GLGSV,3,3,09,83,45,236,34*56
$GNGLL,5454.21475,N,02357.39831,E,152935.00,A,A*78
$GNRMC,152936.00,A,5454.21478,N,02357.39830,E,0.073,,120126,,,A*6C
$GNVTG,,T,,M,0.073,N,0.134,K,A*3F
$GNGGA,152936.00,5454.21478,N,02357.39830,E,1,12,0.99,70.1,M,26.5,M,,*76
$GNGSA,A,3,29,21,31,18,26,16,28,,,,,,1.70,0.99,1.38*1A
$GNGSA,A,3,73,83,82,80,81,,,,,,,,1.70,0.99,1.38*14
$GPGSV,3,1,12,05,35,071,08,09,04,340,15,11,00,046,,16,27,304,31*7E
$GPGSV,3,2,12,18,55,198,39,21,21,041,24,26,57,278,36,28,17,222,23*7A
$GPGSV,3,3,12,29,56,088,12,31,31,250,25,36,27,181,33,49,25,203,*72
$GLGSV,3,1,09,65,17,012,23,66,17,061,12,73,55,300,36,74,14,329,*67
$GLGSV,3,2,09,79,03,162,08,80,51,186,34,81,27,052,34,82,76,036,22*6B
$GLGSV,3,3,09,83,45,236,34*56
$GNGLL,5454.21478,N,02357.39830,E,152936.00,A,A*77
$GNRMC,152937.00,A,5454.21480,N,02357.39829,E,0.089,,120126,,,A*67
$GNVTG,,T,,M,0.089,N,0.165,K,A*3E
$GNGGA,152937.00,5454.21480,N,02357.39829,E,1,12,0.99,69.9,M,26.5,M,,*78
$GNGSA,A,3,29,21,31,18,26,16,28,,,,,,1.70,0.99,1.38*1A
$GNGSA,A,3,73,83,82,80,81,,,,,,,,1.70,0.99,1.38*14
$GPGSV,3,1,12,05,35,071,,09,04,340,16,11,00,046,,16,27,304,31*75
$GPGSV,3,2,12,18,55,198,39,21,21,041,21,26,57,278,35,28,17,222,22*7D
$GPGSV,3,3,12,29,56,088,10,31,31,250,26,36,27,181,32,49,25,203,*72
$GLGSV,3,1,09,65,17,012,23,66,17,061,12,73,55,300,36,74,14,329,*67
$GLGSV,3,2,09,79,03,162,09,80,51,186,34,81,27,052,33,82,76,036,22*6D
$GLGSV,3,3,09,83,45,236,33*51
$GNGLL,5454.21480,N,02357.39829,E,152937.00,A,A*79
$GNRMC,152938.00,A,5454.21479,N,02357.39822,E,0.090,,120126,,,A*6D
$GNVTG,,T,,M,0.090,N,0.167,K,A*34
$GNGGA,152938.00,5454.21479,N,02357.39822,E,1,11,0.99,69.6,M,26.5,M,,*76
$GNGSA,A,3,21,31,18,26,16,28,,,,,,,1.70,0.99,1.38*11
$GNGSA,A,3,73,83,82,80,81,,,,,,,,1.70,0.99,1.38*14
$GPGSV,3,1,12,05,35,071,,09,04,340,16,11,00,046,,16,27,304,32*76
$GPGSV,3,2,12,18,55,198,39,21,21,041,19,26,57,278,35,28,17,222,23*77
$GPGSV,3,3,12,29,56,088,10,31,31,250,26,36,27,181,32,49,25,203,*72
$GLGSV,3,1,09,65,17,012,23,66,17,061,13,73,55,300,36,74,14,329,*66
$GLGSV,3,2,09,79,03,162,12,80,51,186,35,81,27,052,33,82,76,036,22*66
$GLGSV,3,3,09,83,45,236,33*51
$GNGLL,5454.21479,N,02357.39822,E,152938.00,A,A*7B
$GNRMC,152939.00,A,5454.21479,N,02357.39814,E,0.072,,120126,,,A*65
$GNVTG,,T,,M,0.072,N,0.134,K,A*3E
$GNGGA,152939.00,5454.21479,N,02357.39814,E,1,12,0.99,69.2,M,26.5,M,,*75
$GNGSA,A,3,29,21,31,18,26,16,28,,,,,,1.70,0.99,1.38*1A
$GNGSA,A,3,73,83,82,80,81,,,,,,,,1.70,0.99,1.38*14
$GPGSV,3,1,12,05,35,071,,09,04,340,16,11,00,046,,16,27,304,32*76
$GPGSV,3,2,12,18,55,198,39,21,21,041,16,26,57,278,36,28,17,222,23*7B
$GPGSV,3,3,12,29,56,088,10,31,31,250,27,36,27,181,33,49,25,203,*72
$GLGSV,3,1,09,65,17,012,22,66,17,061,16,73,55,300,36,74,14,329,*62
$GLGSV,3,2,09,79,03,162,12,80,51,186,34,81,27,052,33,82,76,036,21*64
$GLGSV,3,3,09,83,45,236,32*50
$GNGLL,5454.21479,N,02357.39814,E,152939.00,A,A*7F
$GNRMC,152940.00,A,5454.21474,N,02357.39803,E,0.077,,120126,,,A*65
$GNVTG,,T,,M,0.077,N,0.142,K,A*3A
$GNGGA,152940.00,5454.21474,N,02357.39803,E,1,12,0.99,68.5,M,26.5,M,,*76
$GNGSA,A,3,29,21,31,18,26,16,28,,,,,,1.70,0.99,1.38*1A
$GNGSA,A,3,73,83,82,80,81,,,,,,,,1.70,0.99,1.38*14
$GPGSV,3,1,12,05,35,071,,09,04,340,16,11,00,046,,16,27,304,31*75
$GPGSV,3,2,12,18,55,198,39,21,21,041,15,26,57,278,36,28,17,222,24*7F
$GPGSV,3,3,12,29,56,088,11,31,31,250,27,36,27,181,33,49,25,203,*73
$GLGSV,3,1,09,65,17,012,23,66,17,061,17,73,55,300,36,74,14,329,*62
$GLGSV,3,2,09,79,03,162,12,80,51,186,34,81,27,052,34,82,76,036,21*63
$GLGSV,3,3,09,83,45,236,31*53
$GNGLL,5454.21474,N,02357.39803,E,152940.00,A,A*7A
$GNRMC,152941.00,A,5454.21468,N,02357.39791,E,0.039,,120126,,,A*67
$GNVTG,,T,,M,0.039,N,0.071,K,A*31
$GNGGA,152941.00,5454.21468,N,02357.39791,E,1,11,0.99,67.8,M,26.5,M,,*7F
$GNGSA,A,3,21,31,18,26,16,28,,,,,,,1.70,0.99,1.38*11
$GNGSA,A,3,73,83,82,80,81,,,,,,,,1.70,0.99,1.38*14
$GPGSV,3,1,12,05,35,071,17,09,04,340,17,11,00,046,,16,27,304,31*72
$GPGSV,3,2,12,18,55,198,39,21,21,041,16,26,57,278,37,28,17,222,23*7A
$GPGSV,3,3,12,29,56,088,09,31,31,250,27,36,27,181,33,49,25,203,*7A
$GLGSV,3,1,09,65,17,012,23,66,17,061,17,73,55,300,36,74,14,329,*62
$GLGSV,3,2,09,79,03,162,14,80,51,186,35,81,27,052,33,82,76,036,21*63
$GLGSV,3,3,09,83,45,236,32*50
$GNGLL,5454.21468,N,02357.39791,E,152941.00,A,A*72
$GNRMC,152942.00,A,5454.21461,N,02357.39781,E,0.032,,120126,,,A*67
$GNVTG,,T,,M,0.032,N,0.060,K,A*3A
$GNGGA,152942.00,5454.21461,N,02357.39781,E,1,11,0.99,67.2,M,26.5,M,,*7E
$GNGSA,A,3,21,31,18,26,16,28,,,,,,,1.70,0.99,1.38*11
$GNGSA,A,3,73,83,82,80,81,,,,,,,,1.70,0.99,1.38*14
$GPGSV,3,1,12,05,35,071,17,09,04,340,17,11,00,046,,16,27,304,32*71
$GPGSV,3,2,12,18,55,198,39,21,21,041,15,26,57,278,36,28,17,222,23*78
$GPGSV,3,3,12,29,56,088,08,31,31,250,28,36,27,181,35,49,25,203,*72
$GLGSV,3,1,09,65,17,012,23,66,17,061,17,73,55,300,37,74,14,329,*63
$GLGSV,3,2,09,79,03,162,15,80,51,186,35,81,27,052,33,82,76,036,21*62
$GLGSV,3,3,09,83,45,236,32*50
$GNGLL,5454.21461,N,02357.39781,E,152942.00,A,A*79
$GNRMC,152943.00,A,5454.21457,N,02357.39773,E,0.073,,120126,,,A*6B
$GNVTG,,T,,M,0.073,N,0.135,K,A*3E
$GNGGA,152943.00,5454.21457,N,02357.39773,E,1,12,0.99,66.8,M,26.5,M,,*7F
$GNGSA,A,3,29,21,31,18,26,16,28,,,,,,1.70,0.99,1.38*1A
$GNGSA,A,3,73,83,82,80,81,,,,,,,,1.70,0.99,1.38*14
$GPGSV,3,1,12,05,35,071,17,09,04,340,16,11,00,046,,16,27,304,31*73
$GPGSV,3,2,12,18,55,198,38,21,21,041,12,26,57,278,37,28,17,222,22*7E
$GPGSV,3,3,12,29,56,088,15,31,31,250,28,36,27,181,30,49,25,203,*7B
$GLGSV,3,1,09,65,17,012,23,66,17,061,17,73,55,300,36,74,14,329,*62
$GLGSV,3,2,09,79,03,162,15,80,51,186,34,81,27,052,34,82,76,036,20*65
$GLGSV,3,3,09,83,45,236,32*50
$GNGLL,5454.21457,N,02357.39773,E,152943.00,A,A*70
$GNRMC,152944.00,A,5454.21452,N,02357.39767,E,0.058,,120126,,,A*65
$GNVTG,,T,,M,0.058,N,0.107,K,A*36
$GNGGA,152944.00,5454.21452,N,02357.39767,E,1,11,0.99,66.5,M,26.5,M,,*76
$GNGSA,A,3,29,31,18,26,16,28,,,,,,,1.81,0.99,1.51*18
$GNGSA,A,3,73,83,82,80,81,,,,,,,,1.81,0.99,1.51*15
$GPGSV,3,1,12,05,35,071,17,09,04,340,15,11,00,046,,16,27,304,32*73
$GPGSV,3,2,12,18,55,198,37,21,21,041,09,26,57,278,37,28,17,222,21*78
$GPGSV,3,3,12,29,56,088,13,31,31,250,28,36,27,181,30,49,25,203,*7D
$GLGSV,3,1,09,65,17,012,22,66,17,061,19,73,55,300,36,74,14,329,*6D
$GLGSV,3,2,09,79,03,162,13,80,51,186,34,81,27,052,34,82,76,036,20*63
$GLGSV,3,3,09,83,45,236,33*51
$GNGLL,5454.21452,N,02357.39767,E,152944.00,A,A*77
$GNRMC,152945.00,A,5454.21445,N,02357.39763,E,0.060,,120126,,,A*6D
$GNVTG,,T,,M,0.060,N,0.111,K,A*3A
$GNGGA,152945.00,5454.21445,N,02357.39763,E,1,12,0.89,66.1,M,26.5,M,,*73
$GNGSA,A,3,05,29,21,31,18,26,16,28,,,,,1.61,0.89,1.34*12
$GNGSA,A,3,73,83,82,80,81,,,,,,,,1.61,0.89,1.34*19
$GPGSV,3,1,12,05,35,071,16,09,04,340,16,11,00,046,,16,27,304,32*71
$GPGSV,3,2,12,18,55,198,37,21,21,041,09,26,57,278,36,28,17,222,20*78
$GPGSV,3,3,12,29,56,088,16,31,31,250,28,36,27,181,29,49,25,203,*70
$GLGSV,3,1,09,65,17,012,22,66,17,061,19,73,55,300,37,74,14,329,*6C
$GLGSV,3,2,09,79,03,162,11,80,51,186,33,81,27,052,34,82,76,036,19*6C
$GLGSV,3,3,09,83,45,236,33*51
$GNGLL,5454.21445,N,02357.39763,E,152945.00,A,A*74
$GNRMC,152946.00,A,5454.21437,N,02357.39758,E,0.034,,120126,,,A*62
$GNVTG,,T,,M,0.034,N,0.062,K,A*3E
$GNGGA,152946.00,5454.21437,N,02357.39758,E,1,12,0.93,65.6,M,26.5,M,,*72
$GNGSA,A,3,05,29,21,31,18,26,16,28,,,,,1.66,0.93,1.38*12