$GLGSV,3,1,10,65,14,001,15,66,22,051,26,67,05,103,14,73,60,279,35*6E
$GLGSV,3,2,10,74,24,327,18,80,38,185,26,81,16,056,20,82,64,044,29*68
$GLGSV,3,3,10,83,56,246,34,84,05,239,*6A
$GNGLL,5454.23948,N,02356.90780,E,155257.00,A,A*76
$GNRMC,155258.00,A,5454.23813,N,02356.90065,E,15.650,252.34,120126,,,A*4E
$GNVTG,252.34,T,,M,15.650,N,28.984,K,A*29
$GNGGA,155258.00,5454.23813,N,02356.90065,E,1,12,0.83,75.8,M,26.5,M,,*7C
$GNGSA,A,3,05,26,31,18,16,28,29,,,,,,1.34,0.83,1.05*19
$GNGSA,A,3,73,80,82,81,83,65,,,,,,,1.34,0.83,1.05*12
$GPGSV,4,1,14,05,34,059,31,09,00,332,,16,37,302,31,18,67,194,35*7C
$GPGSV,4,2,14,21,,,29,23,,,29,25,08,151,24,26,61,258,35*7E
$GPGSV,4,3,14,27,06,277,15,28,07,217,18,29,45,093,36,31,23,242,34*7B
$GPGSV,4,4,14,36,27,181,32,49,25,203,*7E
$GLGSV,3,1,10,65,13,001,16,66,22,051,26,67,05,103,13,73,60,279,35*6D
$GLGSV,3,2,10,74,24,327,17,80,38,185,28,81,16,056,19,82,64,044,29*63
$GLGSV,3,3,10,83,56,246,34,84,05,239,*6A
$GNGLL,5454.23813,N,02356.90065,E,155258.00,A,A*7A
$GNRMC,155259.00,A,5454.23686,N,02356.89341,E,15.812,252.55,120126,,,A*4F
$GNVTG,252.55,T,,M,15.812,N,29.284,K,A*2C
$GNGGA,155259.00,5454.23686,N,02356.89341,E,1,12,0.97,75.8,M,26.5,M,,*77
$GNGSA,A,3,05,26,31,18,16,28,29,,,,,,1.52,0.97,1.17*1F
$GNGSA,A,3,73,80,82,81,83,65,,,,,,,1.52,0.97,1.17*14
$GPGSV,4,1,14,05,34,059,31,09,00,332,,16,37,302,34,18,67,194,36*7A
$GPGSV,4,2,14,21,,,19,23,,,27,25,08,151,23,26,61,258,36*77
$GPGSV,4,3,14,27,06,277,15,28,07,217,18,29,45,093,33,31,23,242,31*7B
$GPGSV,4,4,14,36,27,181,35,49,25,203,*79
$GLGSV,3,1,10,65,13,001,15,66,22,050,27,67,05,103,14,73,60,279,35*69
$GLGSV,3,2,10,74,24,327,15,80,38,185,28,81,16,056,20,82,64,044,28*6A
$GLGSV,3,3,10,83,56,246,34,84,05,239,*6A
$GNGLL,5454.23686,N,02356.89341,E,155259.00,A,A*74
$GNRMC,155300.00,A,5454.23549,N,02356.88609,E,16.021,252.08,120126,,,A*49
$GNVTG,252.08,T,,M,16.021,N,29.671,K,A*21
$GNGGA,155300.00,5454.23549,N,02356.88609,E,1,12,1.03,75.5,M,26.5,M,,*73
$GNGSA,A,3,05,26,31,18,16,28,29,,,,,,1.82,1.03,1.50*1D
$GNGSA,A,3,73,80,82,81,83,65,,,,,,,1.82,1.03,1.50*16
$GPGSV,4,1,14,05,34,059,31,09,00,332,,16,37,302,33,18,67,194,35*7E
$GPGSV,4,2,14,21,,,18,23,,,25,25,08,151,21,26,61,258,36*76
$GPGSV,4,3,14,27,06,277,16,28,07,217,17,29,45,093,36,31,23,242,32*71
$GPGSV,4,4,14,36,27,181,37,49,25,203,*7B
$GLGSV,3,1,10,65,13,001,15,66,22,050,27,67,06,103,14,73,60,279,35*6A
$GLGSV,3,2,10,74,24,327,,80,38,185,27,81,16,056,19,82,64,044,28*6B
$GLGSV,3,3,10,83,56,246,36,84,05,239,*68
$GNGLL,5454.23549,N,02356.88609,E,155300.00,A,A*71
$GNRMC,155301.00,A,5454.23407,N,02356.87877,E,16.047,251.27,120126,,,A*45
$GNVTG,251.27,T,,M,16.047,N,29.718,K,A*21
$GNGGA,155301.00,5454.23407,N,02356.87877,E,1,12,1.07,75.9,M,26.5,M,,*79
$GNGSA,A,3,05,26,31,18,16,28,29,,,,,,2.15,1.07,1.86*1F
$GNGSA,A,3,73,80,82,81,83,65,,,,,,,2.15,1.07,1.86*14
$GPGSV,4,1,14,05,34,059,34,09,00,332,,16,37,302,21,18,67,194,35*78
$GPGSV,4,2,14,21,,,17,23,,,34,25,08,151,19,26,61,258,36*72
$GPGSV,4,3,14,27,06,277,16,28,07,217,17,29,45,093,36,31,23,242,33*70
$GPGSV,4,4,14,36,27,181,34,49,25,203,*78
$GLGSV,3,1,10,65,13,001,18,66,22,050,27,67,06,103,12,73,60,279,35*61
$GLGSV,3,2,10,74,24,327,,80,38,185,32,81,16,056,19,82,64,044,27*60
$GLGSV,3,3,10,83,56,246,32,84,05,239,*6C
$GNGLL,5454.23407,N,02356.87877,E,155301.00,A,A*73
$GNRMC,155302.00,A,5454.23266,N,02356.87140,E,16.108,251.50,120126,,,A*40
$GNVTG,251.50,T,,M,16.108,N,29.832,K,A*2C
$GNGGA,155302.00,5454.23266,N,02356.87140,E,1,12,1.07,75.9,M,26.5,M,,*76
$GNGSA,A,3,05,26,31,18,16,28,29,,,,,,2.15,1.07,1.86*1F
$GNGSA,A,3,73,80,82,81,83,65,,,,,,,2.15,1.07,1.86*14
$GPGSV,4,1,14,05,34,059,33,09,00,332,,16,37,302,33,18,67,194,35*7C
$GPGSV,4,2,14,21,,,22,23,,,30,25,08,151,20,26,61,258,37*7B
$GPGSV,4,3,14,27,06,277,17,28,07,217,17,29,45,093,36,31,23,242,32*70
$GPGSV,4,4,14,36,27,181,31,49,25,203,*7D
$GLGSV,3,1,10,65,13,001,17,66,22,050,27,67,06,103,,73,60,279,35*6D
$GLGSV,3,2,10,74,24,327,,80,38,185,28,81,16,056,19,82,64,044,28*64
$GLGSV,3,3,10,83,56,246,35,84,05,239,*6B
$GNGLL,5454.23266,N,02356.87140,E,155302.00,A,A*7C
$GNRMC,155303.00,A,5454.23122,N,02356.86402,E,16.127,251.00,120126,,,A*48
$GNVTG,251.00,T,,M,16.127,N,29.867,K,A*24
$GNGGA,155303.00,5454.23122,N,02356.86402,E,1,12,1.03,75.6,M,26.5,M,,*7D
$GNGSA,A,3,05,26,31,18,16,28,29,,,,,,1.82,1.03,1.50*1D
$GNGSA,A,3,73,80,82,81,83,65,,,,,,,1.82,1.03,1.50*16
$GPGSV,4,1,14,05,34,059,30,09,00,332,,16,37,302,32,18,67,194,34*7F
$GPGSV,4,2,14,21,,,20,23,,,31,25,08,151,21,26,61,258,36*78
$GPGSV,4,3,14,27,06,277,18,28,07,217,19,29,45,093,36,31,23,242,35*76
$GPGSV,4,4,14,36,27,181,28,49,25,203,*75
$GLGSV,3,1,10,65,13,001,18,66,22,050,26,67,06,103,,73,60,279,35*63
$GLGSV,3,2,10,74,24,327,,80,38,185,27,81,16,056,19,82,64,044,28*6B
$GLGSV,3,3,10,83,56,246,34,84,05,239,*6A
$GNGLL,5454.23122,N,02356.86402,E,155303.00,A,A*7C
$GNRMC,155304.00,A,5454.22985,N,02356.85672,E,15.921,252.05,120126,,,A*46
$GNVTG,252.05,T,,M,15.921,N,29.486,K,A*2C
$GNGGA,155304.00,5454.22985,N,02356.85672,E,1,12,1.03,75.6,M,26.5,M,,*78
$GNGSA,A,3,05,26,31,18,16,28,29,,,,,,1.82,1.03,1.50*1D
$GNGSA,A,3,73,80,82,81,83,65,,,,,,,1.82,1.03,1.50*16
$GPGSV,4,1,14,05,34,059,30,09,00,332,,16,37,302,28,18,67,194,35*75
$GPGSV,4,2,14,21,,,18,23,,,32,25,08,151,23,26,61,258,36*72
$GPGSV,4,3,14,27,06,277,17,28,07,217,19,29,45,093,35,31,23,242,31*7E
$GPGSV,4,4,14,36,27,181,29,49,25,203,*74
$GLGSV,3,1,10,65,13,001,17,66,22,050,23,67,06,103,,73,60,279,35*69
$GLGSV,3,2,10,74,24,327,,80,38,185,27,81,16,056,19,82,64,044,28*6B
$GLGSV,3,3,10,83,56,246,35,84,05,239,*6B
$GNGLL,5454.22985,N,02356.85672,E,155304.00,A,A*79
$GNRMC,155305.00,A,5454.22857,N,02356.84947,E,15.766,252.99,120126,,,A*49
$GNVTG,252.99,T,,M,15.766,N,29.199,K,A*2F
$GNGGA,155305.00,5454.22857,N,02356.84947,E,1,12,1.03,75.9,M,26.5,M,,*70
$GNGSA,A,3,05,26,31,18,16,28,29,,,,,,1.82,1.03,1.50*1D
$GNGSA,A,3,73,80,82,81,83,65,,,,,,,1.82,1.03,1.50*16
$GPGSV,4,1,14,05,34,059,30,09,00,332,,16,37,302,29,18,67,194,35*74
$GPGSV,4,2,14,21,,,16,23,,,28,25,08,151,22,26,61,258,36*76
$GPGSV,4,3,14,27,06,277,16,28,07,217,20,29,45,093,35,31,23,242,32*76
$GPGSV,4,4,14,36,27,181,32,49,25,203,*7E
$GLGSV,3,1,10,65,13,001,14,66,22,050,23,67,06,103,,73,60,279,35*6A
$GLGSV,3,2,10,74,24,327,,80,38,185,27,81,16,056,17,82,64,044,28*65
$GLGSV,3,3,10,83,56,246,35,84,05,239,*6B
$GNGLL,5454.22857,N,02356.84947,E,155305.00,A,A*7E
$GNRMC,155306.00,A,5454.22728,N,02356.84222,E,15.783,252.08,120126,,,A*46
$GNVTG,252.08,T,,M,15.783,N,29.230,K,A*2C
$GNGGA,155306.00,5454.22728,N,02356.84222,E,1,12,0.97,75.8,M,26.5,M,,*71
$GNGSA,A,3,05,26,31,18,16,28,29,,,,,,1.52,0.97,1.17*1F
$GNGSA,A,3,73,80,82,81,83,65,,,,,,,1.52,0.97,1.17*14
$GPGSV,4,1,14,05,34,059,30,09,00,332,,16,37,302,33,18,67,194,35*7F
$GPGSV,4,2,14,21,,,16,23,,,34,25,08,151,28,26,61,258,36*71
$GPGSV,4,3,14,27,06,277,15,28,07,217,19,29,45,093,35,31,23,242,32*7F
$GPGSV,4,4,14,36,27,181,32,49,25,203,*7E
$GLGSV,3,1,10,65,13,001,14,66,22,050,25,67,06,103,,73,61,277,35*63
$GLGSV,3,2,10,74,24,327,,80,38,185,27,81,16,056,18,82,64,044,28*6A
$GLGSV,3,3,10,83,56,246,35,84,05,239,*6B
$GNGLL,5454.22728,N,02356.84222,E,155306.00,A,A*72
$GNRMC,155307.00,A,5454.22584,N,02356.83501,E,15.841,250.42,120126,,,A*4F
$GNVTG,250.42,T,,M,15.841,N,29.337,K,A*27
$GNGGA,155307.00,5454.22584,N,02356.83501,E,1,12,1.04,75.5,M,26.5,M,,*73
$GNGSA,A,3,05,26,31,18,16,28,29,,,,,,1.75,1.04,1.41*12
$GNGSA,A,3,73,80,82,81,83,65,,,,,,,1.75,1.04,1.41*19
$GPGSV,4,1,14,05,34,059,32,09,00,332,,16,37,302,32,18,67,194,35*7C
$GPGSV,4,2,14,21,,,16,23,,,29,25,08,151,28,26,61,258,33*78
$GPGSV,4,3,14,27,06,277,16,28,07,217,19,29,45,093,37,31,23,242,32*7E
$GPGSV,4,4,14,36,27,181,32,49,25,203,*7E
$GLGSV,3,1,10,65,13,001,16,66,22,050,31,67,06,103,,73,61,277,35*64
$GLGSV,3,2,10,74,25,327,,80,38,185,27,81,16,056,18,82,64,044,27*64
$GLGSV,3,3,10,83,56,246,33,84,05,239,*6D
$GNGLL,5454.22584,N,02356.83501,E,155307.00,A,A*76
$GNRMC,155308.00,A,5454.22445,N,02356.82779,E,15.747,251.93,120126,,,A*44
$GNVTG,251.93,T,,M,15.747,N,29.164,K,A*27
$GNGGA,155308.00,5454.22445,N,02356.82779,E,1,12,1.04,75.5,M,26.5,M,,*7C
$GNGSA,A,3,05,26,31,18,16,28,29,,,,,,1.75,1.04,1.41*12
$GNGSA,A,3,73,80,82,81,83,65,,,,,,,1.75,1.04,1.41*19
$GPGSV,4,1,14,05,34,059,32,09,00,332,,16,37,302,32,18,67,194,36*7F
$GPGSV,4,2,14,21,,,18,23,,,25,25,08,151,28,26,61,258,36*7F
$GPGSV,4,3,14,27,06,277,17,28,07,217,18,29,45,093,36,31,23,242,34*79
$GPGSV,4,4,14,36,27,181,33,49,25,203,*7F
$GLGSV,3,1,10,65,13,001,14,66,22,050,29,67,06,103,,73,61,277,35*6F
$GLGSV,3,2,10,74,25,327,,80,38,185,27,81,16,056,19,82,64,044,27*65
$GLGSV,3,3,10,83,56,246,34,84,05,239,*6A
$GNGLL,5454.22445,N,02356.82779,E,155308.00,A,A*79
$GNRMC,155309.00,A,5454.22313,N,02356.82056,E,15.714,252.34,120126,,,A*43
$GNVTG,252.34,T,,M,15.714,N,29.101,K,A*2C
$GNGGA,155309.00,5454.22313,N,02356.82056,E,1,12,1.04,75.5,M,26.5,M,,*73
$GNGSA,A,3,05,26,31,18,16,28,29,,,,,,1.75,1.04,1.41*12
$GNGSA,A,3,73,80,82,81,83,65,,,,,,,1.75,1.04,1.41*19
$GPGSV,4,1,14,05,34,059,32,09,00,332,,16,37,302,32,18,67,194,35*7C
$GPGSV,4,2,14,21,,,19,23,,,32,25,08,151,26,26,61,258,36*76
$GPGSV,4,3,14,27,06,277,17,28,07,217,17,29,45,093,36,31,23,242,33*71
$GPGSV,4,4,14,36,27,181,28,49,25,203,*75
$GLGSV,3,1,10,65,13,001,14,66,22,050,27,67,06,103,,73,61,277,36*62
$GLGSV,3,2,10,74,25,327,,80,38,185,26,81,16,056,18,82,64,044,27*65
$GLGSV,3,3,10,83,56,246,34,84,05,239,*6A
$GNGLL,5454.22313,N,02356.82056,E,155309.00,A,A*76
$GNRMC,155310.00,A,5454.22178,N,02356.81336,E,15.669,252.07,120126,,,A*49
$GNVTG,252.07,T,,M,15.669,N,29.019,K,A*2F
$GNGGA,155310.00,5454.22178,N,02356.81336,E,1,12,1.07,75.6,M,26.5,M,,*72
$GNGSA,A,3,05,26,31,18,16,28,29,,,,,,2.14,1.07,1.86*1E
$GNGSA,A,3,73,80,82,81,83,65,,,,,,,2.14,1.07,1.86*15
$GPGSV,4,1,14,05,34,059,32,09,00,332,,16,37,302,33,18,67,194,35*7D
$GPGSV,4,2,14,21,,,29,23,,,33,25,08,151,24,26,61,258,36*76
$GPGSV,4,3,14,27,06,277,17,28,07,217,17,29,45,093,36,31,23,242,34*76
$GPGSV,4,4,14,36,27,181,36,49,25,203,*7A
$GLGSV,3,1,10,65,13,001,14,66,22,050,28,67,06,103,,73,61,277,35*6E
$GLGSV,3,2,10,74,25,327,,80,38,185,25,81,16,056,18,82,64,044,27*66
$GLGSV,3,3,10,83,56,246,34,84,05,239,*6A
$GNGLL,5454.22178,N,02356.81336,E,155310.00,A,A*77
$GNRMC,155311.00,A,5454.22041,N,02356.80621,E,15.652,251.85,120126,,,A*40
$GNVTG,251.85,T,,M,15.652,N,28.988,K,A*2E
$GNGGA,155311.00,5454.22041,N,02356.80621,E,1,12,1.07,75.7,M,26.5,M,,*7B
$GNGSA,A,3,05,26,31,18,16,28,29,,,,,,2.14,1.07,1.86*1E
$GNGSA,A,3,73,80,82,81,83,65,,,,,,,2.14,1.07,1.86*15
$GPGSV,4,1,14,05,34,059,32,09,00,332,,16,37,302,32,18,67,194,35*7C
$GPGSV,4,2,14,21,,,22,23,,,28,25,08,151,22,26,61,258,36*71
$GPGSV,4,3,14,27,06,277,17,28,07,217,17,29,45,093,35,31,23,242,33*72
$GPGSV,4,4,14,36,27,181,32,49,25,203,*7E
$GLGSV,3,1,10,65,13,001,14,66,22,050,27,67,06,103,,73,61,277,35*61
$GLGSV,3,2,10,74,25,327,,80,38,185,30,81,16,056,19,82,64,044,27*63
$GLGSV,3,3,10,83,56,246,34,84,05,239,*6A
$GNGLL,5454.22041,N,02356.80621,E,155311.00,A,A*7F
$GNRMC,155312.00,A,5454.21898,N,02356.79916,E,15.473,250.77,120126,,,A*4C
$GNVTG,250.77,T,,M,15.473,N,28.656,K,A*2F
$GNGGA,155312.00,5454.21898,N,02356.79916,E,1,12,1.07,75.3,M,26.5,M,,*7E
$GNGSA,A,3,05,26,31,18,16,28,29,,,,,,2.14,1.07,1.85*1D
$GNGSA,A,3,73,80,82,81,83,65,,,,,,,2.14,1.07,1.85*16
$GPGSV,4,1,14,05,34,059,31,09,00,332,,16,37,302,29,18,67,194,35*75
$GPGSV,4,2,14,21,,,20,23,,,27,25,08,151,28,26,61,258,36*76
$GPGSV,4,3,14,27,06,277,17,28,07,217,17,29,45,093,36,31,23,242,33*71
$GPGSV,4,4,14,36,27,181,34,49,25,203,*78
$GLGSV,3,1,10,65,13,001,12,66,22,050,27,67,06,103,,73,61,277,35*67
$GLGSV,3,2,10,74,25,327,,80,38,185,26,81,16,056,20,82,64,044,27*6E
$GLGSV,3,3,10,83,56,246,35,84,05,239,*6B
$GNGLL,5454.21898,N,02356.79916,E,155312.00,A,A*7E
$GNRMC,155313.00,A,5454.21740,N,02356.79218,E,15.627,248.00,120126,,,A*48
$GNVTG,248.00,T,,M,15.627,N,28.941,K,A*2C
$GNGGA,155313.00,5454.21740,N,02356.79218,E,1,12,1.07,75.3,M,26.5,M,,*70
$GNGSA,A,3,05,26,31,18,16,28,29,,,,,,2.14,1.07,1.85*1D
$GNGSA,A,3,73,80,82,81,83,65,,,,,,,2.14,1.07,1.85*16
$GPGSV,4,1,14,05,34,059,31,09,00,332,,16,37,302,28,18,67,194,35*74
$GPGSV,4,2,14,21,,,29,23,,,27,25,08,151,26,26,61,258,36*71
$GPGSV,4,3,14,27,06,277,18,28,07,217,18,29,45,093,35,31,23,242,34*75
$GPGSV,4,4,14,36,27,181,33,49,25,203,*7F
$GLGSV,3,1,10,65,13,001,15,66,22,050,27,67,06,103,,73,61,277,34*61
$GLGSV,3,2,10,74,25,327,,80,37,185,26,81,16,056,20,82,64,044,27*61
$GLGSV,3,3,10,83,56,246,34,84,05,239,*6A
$GNGLL,5454.21740,N,02356.79218,E,155313.00,A,A*70
$GNRMC,155314.00,A,5454.21589,N,02356.78507,E,15.689,250.60,120126,,,A*4B
$GNVTG,250.60,T,,M,15.689,N,29.055,K,A*2A
$GNGGA,155314.00,5454.21589,N,02356.78507,E,1,12,1.07,75.3,M,26.5,M,,*78
$GNGSA,A,3,05,26,31,18,16,28,29,,,,,,2.14,1.07,1.85*1D
$GNGSA,A,3,73,80,82,81,83,65,,,,,,,2.14,1.07,1.85*16
$GPGSV,4,1,14,05,34,059,31,09,00,332,,16,37,302,29,18,67,194,34*74
$GPGSV,4,2,14,21,,,30,23,,,32,25,08,151,23,26,61,258,36*78
$GPGSV,4,3,14,27,06,277,28,28,07,217,19,29,45,093,37,31,23,242,34*75
$GPGSV,4,4,14,36,27,181,32,49,25,203,30*7D
$GLGSV,3,1,10,65,13,001,16,66,22,050,27,67,06,103,,73,61,277,34*62
$GLGSV,3,2,10,74,25,327,,80,37,185,27,81,16,056,19,82,64,044,27*6A
$GLGSV,3,3,10,83,56,246,35,84,05,239,*6B
$GNGLL,5454.21589,N,02356.78507,E,155314.00,A,A*78
$GNRMC,155315.00,A,5454.21453,N,02356.77791,E,15.605,251.75,120126,,,A*4F
$GNVTG,251.75,T,,M,15.605,N,28.900,K,A*23
$GNGGA,155315.00,5454.21453,N,02356.77791,E,1,12,1.07,75.6,M,26.5,M,,*78
$GNGSA,A,3,05,26,31,18,16,28,29,,,,,,2.14,1.07,1.85*1D
$GNGSA,A,3,73,80,82,81,83,65,,,,,,,2.14,1.07,1.85*16
$GPGSV,4,1,14,05,34,059,30,09,00,332,,16,37,302,27,18,67,194,35*7A
$GPGSV,4,2,14,21,,,26,23,,,32,25,08,151,22,26,61,258,36*7E
$GPGSV,4,3,14,27,06,277,19,28,07,217,18,29,45,093,36,31,23,242,36*75
$GPGSV,4,4,14,36,27,181,31,49,25,203,30*7E
$GLGSV,3,1,10,65,13,001,17,66,22,050,28,67,06,103,,73,61,277,31*69
$GLGSV,3,2,10,74,25,327,,80,37,185,27,81,16,056,18,82,63,045,27*6D
$GLGSV,3,3,10,83,56,246,34,84,05,239,*6A
$GNGLL,5454.21453,N,02356.77791,E,155315.00,A,A*7D
$GNRMC,155316.00,A,5454.21324,N,02356.77084,E,15.303,253.00,120126,,,A*4B
$GNVTG,253.00,T,,M,15.303,N,28.342,K,A*2C
$GNGGA,155316.00,5454.21324,N,02356.77084,E,1,12,1.07,76.1,M,26.5,M,,*7B
$GNGSA,A,3,05,26,31,18,16,28,29,,,,,,2.14,1.07,1.85*1D
$GNGSA,A,3,73,80,82,81,83,65,,,,,,,2.14,1.07,1.85*16
$GPGSV,4,1,14,05,34,059,30,09,00,332,,16,37,302,29,18,67,194,35*74
$GPGSV,4,2,14,21,,,23,23,,,26,25,08,151,21,26,61,258,36*7D
$GPGSV,4,3,14,27,06,277,19,28,07,217,19,29,45,093,34,31,23,242,33*73
$GPGSV,4,4,14,36,27,181,,49,25,203,30*7C
$GLGSV,3,1,10,65,13,001,16,66,22,050,28,67,06,103,,73,61,277,35*6C
$GLGSV,3,2,10,74,25,327,,80,37,185,27,81,16,056,18,82,63,045,26*6C
$GLGSV,3,3,10,83,57,247,34,84,05,239,*6A
$GNGLL,5454.21324,N,02356.77084,E,155316.00,A,A*7A
$GNRMC,155317.00,A,5454.21187,N,02356.76362,E,15.719,251.90,120126,,,A*4F
$GNVTG,251.90,T,,M,15.719,N,29.112,K,A*2E
$GNGGA,155317.00,5454.21187,N,02356.76362,E,1,12,1.07,75.8,M,26.5,M,,*71
$GNGSA,A,3,05,26,31,18,16,28,29,,,,,,2.14,1.07,1.85*1D
$GNGSA,A,3,73,80,82,81,83,65,,,,,,,2.14,1.07,1.85*16
$GPGSV,4,1,14,05,34,059,29,09,00,332,,16,37,302,29,18,67,194,35*7C
$GPGSV,4,2,14,21,,,22,23,,,26,25,08,151,22,26,61,258,36*7F
$GPGSV,4,3,14,27,06,277,19,28,07,217,18,29,45,093,36,31,23,242,36*75
$GPGSV,4,4,14,36,27,181,32,49,25,203,34*79
$GLGSV,3,1,10,65,13,001,16,66,22,050,25,67,06,103,,73,61,277,35*61
$GLGSV,3,2,10,74,25,327,,80,37,185,27,81,16,056,18,82,63,045,26*6C
$GLGSV,3,3,10,83,57,247,35,84,05,239,*6B
$GNGLL,5454.21187,N,02356.76362,E,155317.00,A,A*7A
$GNRMC,155318.00,A,5454.21050,N,02356.75643,E,15.713,250.63,120126,,,A*49
$GNVTG,250.63,T,,M,15.713,N,29.101,K,A*2B
$GNGGA,155318.00,5454.21050,N,02356.75643,E,1,12,1.07,75.8,M,26.5,M,,*70
$GNGSA,A,3,05,26,31,18,16,28,29,,,,,,2.14,1.07,1.85*1D
$GNGSA,A,3,73,80,82,81,83,65,,,,,,,2.14,1.07,1.85*16
$GPGSV,4,1,14,05,34,059,33,09,00,332,,16,37,302,33,18,67,194,35*7C
$GPGSV,4,2,14,21,,,22,23,,,27,25,08,151,21,26,61,258,36*7D
$GPGSV,4,3,14,27,06,277,17,28,07,217,17,29,45,093,36,31,23,242,31*73
$GPGSV,4,4,14,36,27,181,37,49,25,203,34*7C
$GLGSV,3,1,10,65,13,001,16,66,22,050,24,67,06,103,,73,61,277,35*60
$GLGSV,3,2,10,74,25,327,,80,37,185,27,81,16,056,18,82,63,045,26*6C
$GLGSV,3,3,10,83,57,247,34,84,05,239,*6A
$GNGLL,5454.21050,N,02356.75643,E,155318.00,A,A*7B
$GNRMC,155319.00,A,5454.20938,N,02356.74919,E,15.297,252.77,120126,,,A*41
$GNVTG,252.77,T,,M,15.297,N,28.330,K,A*24
$GNGGA,155319.00,5454.20938,N,02356.74919,E,1,12,1.07,75.4,M,26.5,M,,*7A
$GNGSA,A,3,05,26,31,18,16,28,29,,,,,,2.14,1.07,1.85*1D
$GNGSA,A,3,73,80,82,81,83,65,,,,,,,2.14,1.07,1.85*16
$GPGSV,4,1,14,05,34,059,30,09,00,332,,16,37,302,35,18,67,194,35*79
$GPGSV,4,2,14,21,,,24,23,,,27,25,08,151,21,26,61,258,36*7B
$GPGSV,4,3,14,27,06,277,18,28,07,217,17,29,45,093,38,31,23,242,32*71
$GPGSV,4,4,14,36,27,181,37,49,25,203,30*78
$GLGSV,3,1,10,65,13,001,15,66,22,050,23,67,06,103,,73,61,277,35*64
$GLGSV,3,2,10,74,25,327,,80,37,185,28,81,16,056,18,82,63,045,26*63
$GLGSV,3,3,10,83,57,247,34,84,05,239,*6A
$GNGLL,5454.20938,N,02356.74919,E,155319.00,A,A*7D
$GNRMC,155320.00,A,5454.20801,N,02356.74199,E,15.851,251.13,120126,,,A*41
$GNVTG,251.13,T,,M,15.851,N,29.356,K,A*24
$GNGGA,155320.00,5454.20801,N,02356.74199,E,1,12,1.07,75.2,M,26.5,M,,*7D
$GNGSA,A,3,05,26,31,18,16,28,29,,,,,,2.14,1.07,1.85*1D
$GNGSA,A,3,73,80,82,81,83,65,,,,,,,2.14,1.07,1.85*16
$GPGSV,4,1,14,05,34,059,30,09,00,332,,16,37,302,30,18,67,194,33*7A
$GPGSV,4,2,14,21,,,23,23,,,26,25,08,151,21,26,61,258,36*7D
$GPGSV,4,3,14,27,06,277,35,28,07,217,18,29,45,093,36,31,23,242,30*7D
$GPGSV,4,4,14,36,27,181,37,49,25,203,28*71
$GLGSV,3,1,10,65,13,001,15,66,22,050,23,67,06,103,,73,61,277,35*64
$GLGSV,3,2,10,74,25,327,,80,37,185,28,81,16,056,17,82,63,045,26*6C
$GLGSV,3,3,10,83,57,247,34,84,05,239,*6A
$GNGLL,5454.20801,N,02356.74199,E,155320.00,A,A*7C
$GNRMC,155321.00,A,5454.20649,N,02356.73477,E,15.973,249.68,120126,,,A*44
$GNVTG,249.68,T,,M,15.973,N,29.583,K,A*2E
$GNGGA,155321.00,5454.20649,N,02356.73477,E,1,11,1.07,74.9,M,26.5,M,,*75
$GNGSA,A,3,05,26,31,18,16,28,29,,,,,,2.14,1.07,1.85*1D
$GNGSA,A,3,73,80,82,83,,,,,,,,,2.14,1.07,1.85*1C
$GPGSV,4,1,14,05,34,059,34,09,00,332,,16,37,302,32,18,67,194,35*7A
$GPGSV,4,2,14,21,,,31,23,,,27,25,08,151,21,26,61,258,35*7C
$GPGSV,4,3,14,27,06,277,28,28,07,217,18,29,45,093,36,31,23,242,31*70
$GPGSV,4,4,14,36,27,181,34,49,25,203,32*79
$GLGSV,3,1,10,65,13,001,15,66,22,050,26,67,06,103,,73,61,277,34*60
$GLGSV,3,2,10,74,25,327,,80,37,185,30,81,16,056,,82,63,045,27*62
$GLGSV,3,3,10,83,57,247,35,84,05,239,*6B
$GNGLL,5454.20649,N,02356.73477,E,155321.00,A,A*7D
$GNRMC,155322.00,A,5454.20514,N,02356.72737,E,16.141,253.25,120126,,,A*42
$GNVTG,253.25,T,,M,16.141,N,29.893,K,A*2A
$GNGGA,155322.00,5454.20514,N,02356.72737,E,1,12,1.07,75.1,M,26.5,M,,*71
$GNGSA,A,3,05,26,31,18,16,28,29,,,,,,2.14,1.07,1.85*1D
$GNGSA,A,3,73,80,82,83,65,,,,,,,,2.14,1.07,1.85*1F
$GPGSV,4,1,14,05,34,059,30,09,00,332,,16,37,302,27,18,67,194,36*79
$GPGSV,4,2,14,21,,,23,23,,,31,25,08,151,19,26,61,258,34*72
$GPGSV,4,3,14,27,06,277,18,28,07,217,16,29,45,093,36,31,23,242,35*79
$GPGSV,4,4,14,36,27,181,34,49,25,203,31*7A
$GLGSV,3,1,10,65,13,001,13,66,22,050,27,67,06,103,,73,61,277,30*63
$GLGSV,3,2,10,74,25,327,,80,37,185,29,81,16,056,,82,63,045,27*6A
$GLGSV,3,3,10,83,57,247,34,84,05,239,*6A
$GNGLL,5454.20514,N,02356.72737,E,155322.00,A,A*73
$GNRMC,155323.00,A,5454.20362,N,02356.72008,E,16.030,249.40,120126,,,A*40
$GNVTG,249.40,T,,M,16.030,N,29.688,K,A*21
$GNGGA,155323.00,5454.20362,N,02356.72008,E,1,11,1.07,75.0,M,26.5,M,,*7E
$GNGSA,A,3,05,26,31,18,16,28,29,,,,,,2.14,1.07,1.85*1D
$GNGSA,A,3,73,80,82,83,,,,,,,,,2.14,1.07,1.85*1C
$GPGSV,4,1,14,05,34,059,34,09,00,332,,16,37,302,28,18,67,194,36*72
$GPGSV,4,2,14,21,,,20,23,,,24,25,08,151,18,26,61,258,35*75
$GPGSV,4,3,14,27,06,277,17,28,07,217,15,29,45,093,35,31,23,242,31*72
$GPGSV,4,4,14,36,27,181,33,49,25,203,30*7C
$GLGSV,3,1,10,65,13,001,,66,22,050,27,67,06,103,,73,61,277,33*62
$GLGSV,3,2,10,74,25,327,,80,37,185,28,81,16,056,,82,63,045,27*6B
$GLGSV,3,3,10,83,57,247,35,84,05,239,*6B
$GNGLL,5454.20362,N,02356.72008,E,155323.00,A,A*7E
$GNRMC,155324.00,A,5454.20223,N,02356.71273,E,16.035,253.11,120126,,,A*44
$GNVTG,253.11,T,,M,16.035,N,29.696,K,A*24
$GNGGA,155324.00,5454.20223,N,02356.71273,E,1,11,1.07,75.3,M,26.5,M,,*73
$GNGSA,A,3,05,26,31,18,16,28,29,,,,,,2.14,1.07,1.85*1D
$GNGSA,A,3,73,80,82,83,,,,,,,,,2.14,1.07,1.85*1C
$GPGSV,4,1,14,05,34,059,31,09,00,332,,16,37,302,29,18,67,194,35*75
$GPGSV,4,2,14,21,,,19,23,,,23,25,08,151,19,26,61,258,35*79
$GPGSV,4,3,14,27,06,277,17,28,07,217,15,29,45,093,35,31,23,242,31*72
$GPGSV,4,4,14,36,27,181,32,49,25,203,30*7D
$GLGSV,3,1,10,65,13,001,19,66,22,050,27,67,06,103,,73,61,277,34*6D
$GLGSV,3,2,10,74,25,327,,80,37,185,27,81,16,056,21,82,63,045,26*66
$GLGSV,3,3,10,83,57,247,35,84,05,239,*6B
$GNGLL,5454.20223,N,02356.71273,E,155324.00,A,A*70
$GNRMC,155325.00,A,5454.20079,N,02356.70521,E,16.604,251.49,120126,,,A*42
$GNVTG,251.49,T,,M,16.604,N,30.751,K,A*2D
$GNGGA,155325.00,5454.20079,N,02356.70521,E,1,11,1.07,75.0,M,26.5,M,,*7D
$GNGSA,A,3,05,26,31,18,16,28,29,,,,,,2.14,1.07,1.85*1D
$GNGSA,A,3,73,80,82,83,,,,,,,,,2.14,1.07,1.85*1C
$GPGSV,4,1,14,05,34,058,29,09,00,332,,16,37,302,31,18,67,194,35*74
$GPGSV,4,2,14,21,,,29,23,,,34,25,08,151,20,26,61,258,35*76
$GPGSV,4,3,14,27,06,277,17,28,07,217,15,29,45,093,35,31,23,242,32*71
$GPGSV,4,4,14,36,27,181,32,49,25,203,29*75
$GLGSV,3,1,10,65,13,001,,66,22,050,25,67,06,103,,73,61,277,34*67
$GLGSV,3,2,10,74,25,327,,80,37,185,28,81,16,056,20,82,63,045,27*69
$GLGSV,3,3,10,83,57,247,35,84,05,239,*6B
$GNGLL,5454.20079,N,02356.70521,E,155325.00,A,A*7D
$GNRMC,155326.00,A,5454.19954,N,02356.69759,E,16.394,254.10,120126,,,A*4D
$GNVTG,254.10,T,,M,16.394,N,30.363,K,A*2D
$GNGGA,155326.00,5454.19954,N,02356.69759,E,1,12,1.07,75.0,M,26.5,M,,*74
$GNGSA,A,3,05,26,31,18,16,28,29,,,,,,2.14,1.07,1.85*1D
$GNGSA,A,3,73,80,82,81,83,,,,,,,,2.14,1.07,1.85*15
$GPGSV,4,1,14,05,34,058,28,09,00,332,,16,37,302,31,18,67,194,36*76
$GPGSV,4,2,14,21,,,29,23,,,28,25,08,151,21,26,61,258,35*7A
$GPGSV,4,3,14,27,06,277,17,28,07,217,15,29,45,093,35,31,23,242,33*70
$GPGSV,4,4,14,36,27,181,27,49,25,203,31*78
$GLGSV,3,1,10,65,13,001,,66,22,050,23,67,06,103,,73,61,277,33*66
$GLGSV,3,2,10,74,25,327,18,80,37,185,27,81,16,056,20,82,63,045,29*61
$GLGSV,3,3,10,83,57,247,35,84,05,239,*6B
$GNGLL,5454.19954,N,02356.69759,E,155326.00,A,A*77
$GNRMC,155327.00,A,5454.19800,N,02356.68989,E,17.092,250.92,120126,,,A*44
$GNVTG,250.92,T,,M,17.092,N,31.655,K,A*26
$GNGGA,155327.00,5454.19800,N,02356.68989,E,1,12,1.07,74.6,M,26.5,M,,*70
$GNGSA,A,3,05,26,31,18,16,28,29,,,,,,2.14,1.07,1.85*1D
$GNGSA,A,3,73,80,82,81,83,,,,,,,,2.14,1.07,1.85*15
$GPGSV,4,1,14,05,34,058,32,09,00,332,,16,37,302,34,18,67,194,35*7B
$GPGSV,4,2,14,21,,,28,23,,,28,25,08,151,20,26,61,258,35*7A
$GPGSV,4,3,14,27,06,277,16,28,07,217,16,29,45,093,35,31,23,242,32*73
$GPGSV,4,4,14,36,27,181,33,49,25,203,30*7C
$GLGSV,3,1,10,65,13,001,,66,22,050,25,67,06,103,,73,61,277,34*67
$GLGSV,3,2,10,74,25,327,17,80,37,185,28,81,16,056,19,82,63,045,29*6B
$GLGSV,3,3,10,83,57,247,35,84,05,239,*6B
$GNGLL,5454.19800,N,02356.68989,E,155327.00,A,A*74
$GNRMC,155328.00,A,5454.19645,N,02356.68203,E,17.315,252.70,120126,,,A*4F
$GNVTG,252.70,T,,M,17.315,N,32.067,K,A*20
$GNGGA,155328.00,5454.19645,N,02356.68203,E,1,12,1.07,74.5,M,26.5,M,,*7A
$GNGSA,A,3,05,26,31,18,16,28,29,,,,,,2.14,1.07,1.85*1D
$GNGSA,A,3,73,80,82,81,83,,,,,,,,2.14,1.07,1.85*15
$GPGSV,4,1,14,05,34,058,31,09,00,332,,16,37,302,28,18,67,194,34*74
$GPGSV,4,2,14,21,,,18,23,,,27,25,08,151,19,26,61,258,35*7C
$GPGSV,4,3,14,27,06,277,15,28,07,217,15,29,45,093,34,31,23,242,32*72
$GPGSV,4,4,14,36,27,181,30,49,25,203,29*77
$GLGSV,3,1,10,65,13,001,17,66,22,050,29,67,06,103,,73,61,277,34*6D
$GLGSV,3,2,10,74,25,327,16,80,37,185,31,81,16,056,19,82,63,045,28*63
$GLGSV,3,3,10,83,57,247,35,84,05,239,*6B
$GNGLL,5454.19645,N,02356.68203,E,155328.00,A,A*7D
$GNRMC,155329.00,A,5454.19485,N,02356.67419,E,17.290,250.81,120126,,,A*42
$GNVTG,250.81,T,,M,17.290,N,32.022,K,A*21
$GNGGA,155329.00,5454.19485,N,02356.67419,E,1,12,1.07,74.4,M,26.5,M,,*76
$GNGSA,A,3,05,26,31,18,16,28,29,,,,,,2.14,1.07,1.85*1D
$GNGSA,A,3,73,80,82,81,83,,,,,,,,2.14,1.07,1.85*15
$GPGSV,4,1,14,05,34,058,32,09,00,332,,16,37,302,34,18,67,194,35*7B
$GPGSV,4,2,14,21,,,18,23,,,28,25,08,151,19,26,61,258,35*73
$GPGSV,4,3,14,27,06,277,20,28,07,217,16,29,45,093,33,31,23,242,32*70
$GPGSV,4,4,14,36,27,181,32,49,25,203,33*7E
$GLGSV,3,1,10,65,13,001,,66,22,050,22,67,06,103,,73,61,277,34*60
$GLGSV,3,2,10,74,25,327,15,80,37,185,30,81,16,056,19,82,63,045,28*61
$GLGSV,3,3,10,83,57,247,35,84,05,239,*6B
$GNGLL,5454.19485,N,02356.67419,E,155329.00,A,A*70
$GNRMC,155330.00,A,5454.19332,N,02356.66632,E,17.238,252.33,120126,,,A*42
$GNVTG,252.33,T,,M,17.238,N,31.924,K,A*24
$GNGGA,155330.00,5454.19332,N,02356.66632,E,1,12,1.07,74.6,M,26.5,M,,*7D
$GNGSA,A,3,05,26,31,18,16,28,29,,,,,,2.14,1.07,1.85*1D
$GNGSA,A,3,73,80,82,81,83,,,,,,,,2.14,1.07,1.85*15
$GPGSV,4,1,14,05,34,058,32,09,00,332,,16,37,302,30,18,67,194,35*7F
$GPGSV,4,2,14,21,,,18,23,,,32,25,08,151,19,26,61,258,35*78
$GPGSV,4,3,14,27,06,277,28,28,07,217,15,29,45,093,33,31,23,242,30*79
$GPGSV,4,4,14,36,27,181,,49,25,203,28*75
$GLGSV,3,1,10,65,13,001,,66,22,050,25,67,06,103,,73,61,277,33*60
$GLGSV,3,2,10,74,25,327,14,80,37,185,29,81,16,056,20,82,63,045,28*62
$GLGSV,3,3,10,83,57,247,35,84,05,239,*6B
$GNGLL,5454.19332,N,02356.66632,E,155330.00,A,A*79
$GNRMC,155331.00,A,5454.19173,N,02356.65842,E,17.387,251.30,120126,,,A*4B
$GNVTG,251.30,T,,M,17.387,N,32.200,K,A*2F
$GNGGA,155331.00,5454.19173,N,02356.65842,E,1,12,1.07,74.8,M,26.5,M,,*7F
$GNGSA,A,3,05,26,31,18,16,28,29,,,,,,2.14,1.07,1.85*1D
$GNGSA,A,3,73,80,82,81,83,,,,,,,,2.14,1.07,1.85*15
$GPGSV,4,1,14,05,34,058,32,09,00,332,,16,37,302,30,18,67,194,37*7D
$GPGSV,4,2,14,21,,,18,23,,,31,25,08,151,19,26,61,258,35*7B
$GPGSV,4,3,14,27,06,277,28,28,07,217,15,29,45,093,34,31,23,242,34*7A
$GPGSV,4,4,14,36,27,181,,49,25,203,28*75
$GLGSV,3,1,10,65,13,001,,66,22,050,26,67,06,103,,73,61,277,33*63
$GLGSV,3,2,10,74,25,327,14,80,37,185,28,81,16,056,21,82,63,045,28*62
$GLGSV,3,3,10,83,57,247,35,84,05,239,*6B
$GNGLL,5454.19173,N,02356.65842,E,155331.00,A,A*75
$GNRMC,155332.00,A,5454.19021,N,02356.65040,E,17.478,252.45,120126,,,A*42
$GNVTG,252.45,T,,M,17.478,N,32.370,K,A*2F
$GNGGA,155332.00,5454.19021,N,02356.65040,E,1,12,1.03,74.6,M,26.5,M,,*7A
$GNGSA,A,3,05,26,31,18,16,28,29,,,,,,1.81,1.03,1.49*16
$GNGSA,A,3,73,80,82,81,83,,,,,,,,1.81,1.03,1.49*1E
$GPGSV,4,1,14,05,34,058,33,09,00,332,,16,37,302,31,18,67,194,34*7E
$GPGSV,4,2,14,21,,,18,23,,,26,25,08,151,19,26,61,258,35*7D
$GPGSV,4,3,14,27,06,277,26,28,07,217,15,29,45,093,35,31,23,242,33*72
$GPGSV,4,4,14,36,27,181,,49,25,203,29*74
$GLGSV,3,1,10,65,13,001,,66,22,050,27,67,06,103,,73,61,277,33*62
$GLGSV,3,2,10,74,25,327,15,80,37,185,27,81,16,056,20,82,63,045,28*6D
$GLGSV,3,3,10,83,57,247,35,84,05,239,*6B
$GNGLL,5454.19021,N,02356.65040,E,155332.00,A,A*7A
$GNRMC,155333.00,A,5454.18859,N,02356.64236,E,17.660,251.32,120126,,,A*4F
$GNVTG,251.32,T,,M,17.660,N,32.707,K,A*23
$GNGGA,155333.00,5454.18859,N,02356.64236,E,1,12,1.03,74.3,M,26.5,M,,*7A
$GNGSA,A,3,05,26,31,18,16,28,29,,,,,,1.81,1.03,1.49*16
$GNGSA,A,3,73,80,82,81,83,,,,,,,,1.81,1.03,1.49*1E
$GPGSV,4,1,14,05,34,058,27,09,00,332,,16,37,302,29,18,67,194,34*72
$GPGSV,4,2,14,21,,,23,23,,,25,25,08,151,20,26,61,258,35*7C
$GPGSV,4,3,14,27,06,277,25,28,07,217,16,29,45,093,33,31,23,242,34*73
$GPGSV,4,4,14,36,27,181,,49,25,203,28*75
$GLGSV,3,1,10,65,13,001,,66,22,050,24,67,06,103,,73,61,277,33*61
$GLGSV,3,2,10,74,25,327,18,80,37,185,28,81,16,056,19,82,63,045,29*64
$GLGSV,3,3,10,83,57,247,36,84,05,239,*68
$GNGLL,5454.18859,N,02356.64236,E,155333.00,A,A*7F
$GNRMC,155334.00,A,5454.18697,N,02356.63430,E,17.805,251.24,120126,,,A*49
$GNVTG,251.24,T,,M,17.805,N,32.975,K,A*22
$GNGGA,155334.00,5454.18697,N,02356.63430,E,1,12,1.07,74.0,M,26.5,M,,*71
$GNGSA,A,3,05,26,31,18,16,28,29,,,,,,2.14,1.07,1.85*1D
$GNGSA,A,3,73,80,82,81,83,,,,,,,,2.14,1.07,1.85*15
$GPGSV,4,1,14,05,34,058,32,09,00,332,,16,37,302,31,18,67,194,35*7E
$GPGSV,4,2,14,21,,,25,23,,,25,25,08,151,20,26,61,258,35*7A
$GPGSV,4,3,14,27,06,277,21,28,07,217,16,29,45,093,34,31,23,242,33*77
$GPGSV,4,4,14,36,27,181,,49,25,203,29*74
$GLGSV,3,1,10,65,13,001,,66,22,050,26,67,06,103,,73,61,277,33*63
$GLGSV,3,2,10,74,25,327,18,80,37,185,28,81,16,056,18,82,63,045,28*64
$GLGSV,3,3,10,83,57,247,35,84,05,239,*6B
$GNGLL,5454.18697,N,02356.63430,E,155334.00,A,A*73
$GNRMC,155335.00,A,5454.18537,N,02356.62618,E,17.866,251.57,120126,,,A*49
$GNVTG,251.57,T,,M,17.866,N,33.087,K,A*26
$GNGGA,155335.00,5454.18537,N,02356.62618,E,1,11,1.07,73.7,M,26.5,M,,*73
$GNGSA,A,3,05,26,31,18,16,28,29,,,,,,2.14,1.07,1.85*1D
$GNGSA,A,3,73,80,82,83,,,,,,,,,2.14,1.07,1.85*1C
$GPGSV,4,1,14,05,34,058,31,09,00,332,,16,37,302,32,18,67,194,35*7E
$GPGSV,4,2,14,21,,,25,23,,,26,25,08,151,19,26,61,258,35*73
$GPGSV,4,3,14,27,06,277,17,28,07,217,16,29,45,093,34,31,23,242,32*73
$GPGSV,4,4,14,36,27,181,,49,25,203,29*74
$GLGSV,3,1,10,65,13,001,,66,22,050,29,67,06,103,,73,61,277,33*6C
$GLGSV,3,2,10,74,25,327,18,80,37,185,27,81,16,056,,82,63,045,28*62
$GLGSV,3,3,10,83,57,247,35,84,05,239,*6B
$GNGLL,5454.18537,N,02356.62618,E,155335.00,A,A*72
$GNRMC,155336.00,A,5454.18370,N,02356.61804,E,17.957,251.13,120126,,,A*4C
$GNVTG,251.13,T,,M,17.957,N,33.257,K,A*2A
$GNGGA,155336.00,5454.18370,N,02356.61804,E,1,11,1.07,73.7,M,26.5,M,,*75
$GNGSA,A,3,05,26,31,18,16,28,29,,,,,,2.14,1.07,1.85*1D
$GNGSA,A,3,73,80,82,83,,,,,,,,,2.14,1.07,1.85*1C
$GPGSV,4,1,14,05,34,058,26,09,00,332,,16,37,302,27,18,67,194,35*7C
$GPGSV,4,2,14,21,,,24,23,,,26,25,08,151,19,26,61,257,35*7D
$GPGSV,4,3,14,27,06,277,16,28,07,217,16,29,45,093,34,31,23,242,32*72
$GPGSV,4,4,14,36,27,181,,49,25,203,29*74
$GLGSV,3,1,10,65,13,001,,66,22,050,29,67,06,103,,73,61,277,33*6C
$GLGSV,3,2,10,74,25,327,17,80,37,185,28,81,16,056,25,82,63,045,29*64
$GLGSV,3,3,10,83,57,247,35,84,05,239,*6B
$GNGLL,5454.18370,N,02356.61804,E,155336.00,A,A*74
$GNRMC,155337.00,A,5454.18211,N,02356.60981,E,18.132,252.16,120126,,,A*44
$GNVTG,252.16,T,,M,18.132,N,33.580,K,A*25
$GNGGA,155337.00,5454.18211,N,02356.60981,E,1,11,1.07,73.6,M,26.5,M,,*7E
$GNGSA,A,3,05,26,31,18,16,28,29,,,,,,2.14,1.07,1.85*1D
$GNGSA,A,3,73,80,82,83,,,,,,,,,2.14,1.07,1.85*1C
$GPGSV,4,1,14,05,34,058,31,09,00,332,,16,37,302,29,18,67,194,35*74
$GPGSV,4,2,14,21,,,23,23,,,27,25,08,151,19,26,61,257,35*7B
$GPGSV,4,3,14,27,07,277,29,28,07,217,17,29,45,093,34,31,23,242,32*7E
$GPGSV,4,4,14,36,27,181,,49,25,203,30*7C
$GLGSV,3,1,10,65,13,001,,66,22,050,27,67,06,103,,73,61,277,33*62
$GLGSV,3,2,10,74,25,327,16,80,37,185,26,81,16,056,24,82,63,045,28*6B
$GLGSV,3,3,10,83,57,247,35,84,05,239,*6B
$GNGLL,5454.18211,N,02356.60981,E,155337.00,A,A*7E
$GNRMC,155338.00,A,5454.18051,N,02356.60159,E,18.102,251.28,120126,,,A*4D
$GNVTG,251.28,T,,M,18.102,N,33.524,K,A*26
$GNGGA,155338.00,5454.18051,N,02356.60159,E,1,12,1.03,73.8,M,26.5,M,,*73
$GNGSA,A,3,05,26,31,18,16,28,29,,,,,,1.81,1.03,1.49*16
$GNGSA,A,3,73,80,82,81,83,,,,,,,,1.81,1.03,1.49*1E
$GPGSV,4,1,14,05,34,058,31,09,00,332,,16,37,302,28,18,67,194,35*75
$GPGSV,4,2,14,21,,,21,23,,,28,25,08,151,18,26,61,257,36*74
$GPGSV,4,3,14,27,07,277,21,28,07,217,18,29,45,093,32,31,23,242,33*7E
$GPGSV,4,4,14,36,27,181,,49,25,203,29*74
$GLGSV,3,1,10,65,13,001,,66,22,050,26,67,06,103,,73,61,277,33*63
$GLGSV,3,2,10,74,25,327,15,80,37,185,26,81,16,056,22,82,63,045,28*6E
$GLGSV,3,3,10,83,57,247,36,84,05,239,*68
$GNGLL,5454.18051,N,02356.60159,E,155338.00,A,A*7A
$GNRMC,155339.00,A,5454.17896,N,02356.59329,E,18.175,252.31,120126,,,A*44
$GNVTG,252.31,T,,M,18.175,N,33.660,K,A*2E
$GNGGA,155339.00,5454.17896,N,02356.59329,E,1,12,1.03,73.9,M,26.5,M,,*70
$GNGSA,A,3,05,26,31,18,16,28,29,,,,,,1.81,1.03,1.49*16
$GNGSA,A,3,73,80,82,81,83,,,,,,,,1.81,1.03,1.49*1E
$GPGSV,4,1,14,05,34,058,31,09,00,332,,16,37,302,32,18,67,194,33*78
$GPGSV,4,2,14,21,,,18,23,,,28,25,08,151,19,26,61,257,35*7C
$GPGSV,4,3,14,27,07,277,19,28,07,217,20,29,45,093,35,31,23,242,33*79
$GPGSV,4,4,14,36,27,181,,49,25,203,29*74
$GLGSV,3,1,10,65,13,001,,66,22,050,27,67,06,103,,73,61,277,31*60
$GLGSV,3,2,10,74,25,327,18,80,37,185,26,81,16,056,21,82,63,045,28*60
$GLGSV,3,3,10,83,57,247,35,84,05,239,*6B
$GNGLL,5454.17896,N,02356.59329,E,155339.00,A,A*78
$GNRMC,155340.00,A,5454.17738,N,02356.58488,E,18.398,252.01,120126,,,A*4E
$GNVTG,252.01,T,,M,18.398,N,34.073,K,A*2F
$GNGGA,155340.00,5454.17738,N,02356.58488,E,1,12,1.03,74.0,M,26.5,M,,*76
$GNGSA,A,3,05,26,31,18,16,28,29,,,,,,1.81,1.03,1.49*16
$GNGSA,A,3,73,80,82,81,83,,,,,,,,1.81,1.03,1.49*1E
$GPGSV,4,1,14,05,34,058,33,09,00,332,,16,37,302,30,18,67,194,36*7D
$GPGSV,4,2,14,21,,,18,23,,,28,25,08,151,19,26,61,257,36*7F
$GPGSV,4,3,14,27,07,277,19,28,07,217,20,29,45,093,35,31,23,242,29*72
$GPGSV,4,4,14,36,27,181,,49,25,203,31*7D
$GLGSV,3,1,10,65,13,001,22,66,22,050,26,67,06,103,,73,61,277,34*64
$GLGSV,3,2,10,74,25,327,18,80,37,185,26,81,16,056,21,82,63,045,28*60
$GLGSV,3,3,10,83,57,247,36,84,05,239,*68
$GNGLL,5454.17738,N,02356.58488,E,155340.00,A,A*70
$GNRMC,155341.00,A,5454.17580,N,02356.57644,E,18.491,252.09,120126,,,A*45
$GNVTG,252.09,T,,M,18.491,N,34.246,K,A*2D
$GNGGA,155341.00,5454.17580,N,02356.57644,E,1,12,1.03,74.1,M,26.5,M,,*7A
$GNGSA,A,3,05,26,31,18,16,28,29,,,,,,1.81,1.03,1.49*16
$GNGSA,A,3,73,80,82,81,83,,,,,,,,1.81,1.03,1.49*1E
$GPGSV,4,1,14,05,34,058,28,09,00,332,,16,37,302,32,18,67,194,36*75
$GPGSV,4,2,14,21,,,20,23,,,28,25,08,151,19,26,61,257,36*74
$GPGSV,4,3,14,27,07,277,21,28,07,217,21,29,45,093,35,31,23,241,30*73
$GPGSV,4,4,14,36,27,181,,49,25,203,29*74
$GLGSV,3,1,10,65,13,001,19,66,22,050,25,67,06,103,,73,61,277,34*6F
$GLGSV,3,2,10,74,25,327,17,80,37,185,27,81,16,056,20,82,63,045,27*60
$GLGSV,3,3,10,83,57,247,36,84,05,239,22*68
$GNGLL,5454.17580,N,02356.57644,E,155341.00,A,A*7D
$GNRMC,155342.00,A,5454.17417,N,02356.56795,E,18.677,251.70,120126,,,A*42
$GNVTG,251.70,T,,M,18.677,N,34.590,K,A*26
$GNGGA,155342.00,5454.17417,N,02356.56795,E,1,12,1.03,74.1,M,26.5,M,,*7A
$GNGSA,A,3,05,26,31,18,16,28,29,,,,,,1.81,1.03,1.49*16
$GNGSA,A,3,73,80,82,81,83,,,,,,,,1.81,1.03,1.49*1E
$GPGSV,4,1,14,05,34,058,33,09,00,332,,16,37,302,31,18,67,194,35*7F
$GPGSV,4,2,14,21,,,20,23,,,27,25,08,151,19,26,61,257,35*78
$GPGSV,4,3,14,27,07,277,19,28,07,217,20,29,45,093,32,31,23,241,30*7E
$GPGSV,4,4,14,36,27,181,,49,25,203,29*74
$GLGSV,3,1,10,65,13,001,17,66,22,050,27,67,06,103,,73,61,277,29*6F
$GLGSV,3,2,10,74,25,327,17,80,37,185,28,81,16,056,20,82,63,045,27*6F
$GLGSV,3,3,10,83,57,247,36,84,05,239,20*6A
$GNGLL,5454.17417,N,02356.56795,E,155342.00,A,A*7D
$GNRMC,155343.00,A,5454.17263,N,02356.55944,E,18.600,252.67,120126,,,A*42
$GNVTG,252.67,T,,M,18.600,N,34.448,K,A*27
$GNGGA,155343.00,5454.17263,N,02356.55944,E,1,12,1.03,74.7,M,26.5,M,,*79
$GNGSA,A,3,05,26,31,18,16,28,29,,,,,,1.81,1.03,1.49*16
$GNGSA,A,3,73,80,82,81,83,,,,,,,,1.81,1.03,1.49*1E
$GPGSV,4,1,14,05,34,058,29,09,00,332,,16,37,302,32,18,67,194,35*77
$GPGSV,4,2,14,21,,,19,23,,,27,25,08,151,19,26,61,257,35*72
$GPGSV,4,3,14,27,07,277,17,28,07,217,21,29,45,093,35,31,23,241,34*72
$GPGSV,4,4,14,36,27,181,,49,25,203,30*7C
$GLGSV,3,1,10,65,13,001,17,66,22,050,28,67,06,103,,73,61,277,33*6B
$GLGSV,3,2,10,74,25,327,19,80,37,185,27,81,16,056,20,82,63,045,26*6F
$GLGSV,3,3,10,83,57,247,36,84,05,239,21*6B
$GNGLL,5454.17263,N,02356.55944,E,155343.00,A,A*78
$GNRMC,155344.00,A,5454.17095,N,02356.55081,E,19.039,251.57,120126,,,A*43
$GNVTG,251.57,T,,M,19.039,N,35.260,K,A*27
$GNGGA,155344.00,5454.17095,N,02356.55081,E,1,12,0.92,74.5,M,26.5,M,,*7E
$GNGSA,A,3,05,26,31,18,16,28,29,,,,,,1.64,0.92,1.36*1C
$GNGSA,A,3,73,80,82,81,83,65,,,,,,,1.64,0.92,1.36*17
$GPGSV,4,1,14,05,34,058,27,09,00,332,,16,37,302,25,18,67,194,35*7F
$GPGSV,4,2,14,21,,,29,23,,,27,25,08,151,18,26,61,257,35*70
$GPGSV,4,3,14,27,07,277,14,28,07,217,21,29,45,093,35,31,23,241,33*76
$GPGSV,4,4,14,36,27,181,,49,25,203,33*7F
$GLGSV,3,1,10,65,13,001,17,66,22,050,25,67,06,103,,73,61,277,33*66
$GLGSV,3,2,10,74,25,327,17,80,37,185,26,81,16,056,21,82,63,045,27*60
$GLGSV,3,3,10,83,57,247,36,84,05,239,20*6A
$GNGLL,5454.17095,N,02356.55081,E,155344.00,A,A*74
$GNRMC,155345.00,A,5454.16941,N,02356.54207,E,18.983,253.58,120126,,,A*4A
$GNVTG,253.58,T,,M,18.983,N,35.157,K,A*24
$GNGGA,155345.00,5454.16941,N,02356.54207,E,1,12,0.92,74.3,M,26.5,M,,*75
$GNGSA,A,3,05,26,31,18,16,28,29,,,,,,1.64,0.92,1.36*1C
$GNGSA,A,3,73,80,82,81,83,65,,,,,,,1.64,0.92,1.36*17
$GPGSV,4,1,14,05,34,058,32,09,00,332,,16,37,302,30,18,67,194,32*78
$GPGSV,4,2,14,21,,,20,23,,,26,25,08,151,18,26,61,257,35*78
$GPGSV,4,3,14,27,07,277,14,28,07,217,21,29,45,093,37,31,23,241,33*74
$GPGSV,4,4,14,36,27,181,,49,25,203,29*74
$GLGSV,3,1,10,65,13,001,16,66,22,050,26,67,06,103,,73,61,277,33*64
$GLGSV,3,2,10,74,25,327,14,80,37,185,27,81,16,056,21,82,63,045,28*6D
$GLGSV,3,3,10,83,57,247,35,84,05,239,21*68
$GNGLL,5454.16941,N,02356.54207,E,155345.00,A,A*79
$GNRMC,155346.00,A,5454.16785,N,02356.53318,E,19.427,253.06,120126,,,A*4E
$GNVTG,253.06,T,,M,19.427,N,35.978,K,A*28
$GNGGA,155346.00,5454.16785,N,02356.53318,E,1,12,1.03,74.3,M,26.5,M,,*71
$GNGSA,A,3,05,26,31,18,16,28,29,,,,,,1.81,1.03,1.49*16
$GNGSA,A,3,73,80,82,81,83,65,,,,,,,1.81,1.03,1.49*1D
$GPGSV,4,1,14,05,34,058,32,09,00,332,,16,37,302,22,18,67,194,35*7C
$GPGSV,4,2,14,21,,,18,23,,,25,25,08,151,19,26,61,257,35*71
$GPGSV,4,3,14,27,07,277,14,28,07,217,22,29,45,093,35,31,23,241,36*70
$GPGSV,4,4,14,36,27,181,,49,25,203,28*75
$GLGSV,3,1,10,65,13,001,14,66,22,050,23,67,06,103,,73,61,277,33*63
$GLGSV,3,2,10,74,25,327,13,80,37,185,26,81,16,056,20,82,63,045,29*6B
$GLGSV,3,3,10,83,57,247,35,84,05,239,21*68
$GNGLL,5454.16785,N,02356.53318,E,155346.00,A,A*74
$GNRMC,155347.00,A,5454.16611,N,02356.52436,E,19.327,250.75,120126,,,A*49
$GNVTG,250.75,T,,M,19.327,N,35.793,K,A*23
$GNGGA,155347.00,5454.16611,N,02356.52436,E,1,12,1.03,74.2,M,26.5,M,,*77
$GNGSA,A,3,05,26,31,18,16,28,29,,,,,,1.81,1.03,1.49*16
$GNGSA,A,3,73,80,82,81,83,65,,,,,,,1.81,1.03,1.49*1D
$GPGSV,4,1,14,05,34,058,31,09,00,332,,16,37,302,31,18,67,194,35*7D
$GPGSV,4,2,14,21,,,16,23,,,26,25,08,151,18,26,61,257,35*7D
$GPGSV,4,3,14,27,07,277,15,28,07,217,22,29,45,093,33,31,23,241,33*72
$GPGSV,4,4,14,36,27,181,,49,25,203,28*75
$GLGSV,3,1,10,65,13,001,13,66,22,050,22,67,06,103,,73,61,277,30*66
$GLGSV,3,2,10,74,25,327,12,80,37,185,25,81,16,056,19,82,63,045,29*63
$GLGSV,3,3,10,83,57,247,35,84,05,239,21*68
$GNGLL,5454.16611,N,02356.52436,E,155347.00,A,A*73
$GNRMC,155348.00,A,5454.16438,N,02356.51557,E,19.344,251.64,120126,,,A*4E
$GNVTG,251.64,T,,M,19.344,N,35.825,K,A*25
$GNGGA,155348.00,5454.16438,N,02356.51557,E,1,12,1.03,74.7,M,26.5,M,,*71
$GNGSA,A,3,05,26,31,18,16,28,29,,,,,,1.81,1.03,1.49*16
$GNGSA,A,3,73,80,82,81,83,65,,,,,,,1.81,1.03,1.49*1D
$GPGSV,4,1,14,05,34,058,33,09,00,332,,16,37,302,30,18,67,194,35*7E
$GPGSV,4,2,14,21,,,18,23,,,27,25,08,151,18,26,61,257,35*72
$GPGSV,4,3,14,27,07,277,14,28,07,217,22,29,45,093,34,31,23,241,29*7F
$GPGSV,4,4,14,36,27,181,,49,25,203,27*7A
$GLGSV,3,1,10,65,13,001,14,66,22,050,19,67,06,103,,73,61,277,33*6A
$GLGSV,3,2,10,74,25,327,16,80,37,185,27,81,16,056,18,82,63,045,28*65
$GLGSV,3,3,10,83,57,247,36,84,05,239,21*6B
$GNGLL,5454.16438,N,02356.51557,E,155348.00,A,A*70
$GNRMC,155349.00,A,5454.16259,N,02356.50659,E,19.719,251.03,120126,,,A*4F
$GNVTG,251.03,T,,M,19.719,N,36.520,K,A*23
$GNGGA,155349.00,5454.16259,N,02356.50659,E,1,12,1.07,74.6,M,26.5,M,,*78
$GNGSA,A,3,05,26,31,18,16,28,29,,,,,,2.13,1.07,1.84*1B
$GNGSA,A,3,73,80,82,81,83,65,,,,,,,2.13,1.07,1.84*10
$GPGSV,4,1,14,05,34,058,31,09,00,332,,16,37,302,23,18,67,194,34*7F
$GPGSV,4,2,14,21,,,28,23,,,32,25,08,151,18,26,61,257,35*75
$GPGSV,4,3,14,27,07,277,14,28,07,217,28,29,45,093,36,31,23,241,35*7A
$GPGSV,4,4,14,36,27,181,,49,25,203,32*7E
$GLGSV,3,1,10,65,13,001,16,66,22,050,28,67,06,103,,73,61,277,33*6A
$GLGSV,3,2,10,74,25,327,16,80,37,185,26,81,16,056,17,82,63,045,27*64
$GLGSV,3,3,10,83,57,247,36,84,05,239,20*6A
$GNGLL,5454.16259,N,02356.50659,E,155349.00,A,A*7C
$GNRMC,155350.00,A,5454.16101,N,02356.49780,E,18.917,252.88,120126,,,A*45
$GNVTG,252.88,T,,M,18.917,N,35.035,K,A*20
$GNGGA,155350.00,5454.16101,N,02356.49780,E,1,12,1.07,74.8,M,26.5,M,,*7D
$GNGSA,A,3,05,26,31,18,16,28,29,,,,,,2.13,1.07,1.84*1B
$GNGSA,A,3,73,80,82,83,65,,,,,,,,2.13,1.07,1.84*19
$GPGSV,4,1,14,05,34,058,31,09,00,332,,16,37,302,31,18,67,194,35*7D
$GPGSV,4,2,14,21,,,17,23,,,28,25,08,151,19,26,61,257,35*73
$GPGSV,4,3,14,27,07,277,13,28,07,217,26,29,45,093,33,31,23,241,31*72
$GPGSV,4,4,14,36,27,181,,49,25,203,32*7E
$GLGSV,3,1,10,65,13,001,14,66,22,050,27,67,06,103,,73,61,277,34*60
$GLGSV,3,2,10,74,25,327,15,80,37,185,26,81,16,056,,82,63,045,28*6E
$GLGSV,3,3,10,83,57,247,36,84,05,239,20*6A
$GNGLL,5454.16101,N,02356.49780,E,155350.00,A,A*77
$GNRMC,155351.00,A,5454.15927,N,02356.48903,E,19.409,250.73,120126,,,A*4A
$GNVTG,250.73,T,,M,19.409,N,35.945,K,A*2B
$GNGGA,155351.00,5454.15927,N,02356.48903,E,1,11,1.07,74.9,M,26.5,M,,*75
$GNGSA,A,3,05,26,31,18,16,28,29,,,,,,2.13,1.07,1.84*1B
$GNGSA,A,3,73,80,82,83,,,,,,,,,2.13,1.07,1.84*1A
$GPGSV,4,1,14,05,34,058,34,09,00,332,,16,37,302,27,18,67,194,35*7F
$GPGSV,4,2,14,21,,,17,23,,,28,25,08,151,29,26,61,257,36*73
$GPGSV,4,3,14,27,07,277,12,28,07,217,25,29,45,093,34,31,23,241,32*74
$GPGSV,4,4,14,36,27,181,,49,25,203,30*7C
$GLGSV,3,1,10,65,13,001,,66,22,050,25,67,06,103,,73,61,277,33*60
$GLGSV,3,2,10,74,25,327,15,80,37,185,27,81,16,056,,82,63,045,28*6F
$GLGSV,3,3,10,83,57,247,36,84,05,239,19*60
$GNGLL,5454.15927,N,02356.48903,E,155351.00,A,A*7D
$GNRMC,155352.00,A,5454.15741,N,02356.48016,E,19.474,250.79,120126,,,A*4A
$GNVTG,250.79,T,,M,19.474,N,36.066,K,A*20
$GNGGA,155352.00,5454.15741,N,02356.48016,E,1,11,1.07,73.8,M,26.5,M,,*73
$GNGSA,A,3,05,26,31,18,16,28,29,,,,,,2.13,1.07,1.84*1B
$GNGSA,A,3,73,80,82,83,,,,,,,,,2.13,1.07,1.84*1A
$GPGSV,4,1,14,05,34,058,34,09,00,332,,16,37,302,26,18,67,194,35*7E
$GPGSV,4,2,14,21,,,19,23,,,34,25,08,151,27,26,61,257,36*7E
$GPGSV,4,3,14,27,07,277,14,28,07,217,26,29,45,093,35,31,23,241,35*77
$GPGSV,4,4,14,36,27,181,,49,25,203,33*7F
$GLGSV,3,1,10,65,13,001,,66,22,050,25,67,06,103,,73,61,277,33*60
$GLGSV,3,2,10,74,25,327,15,80,37,185,28,81,16,056,19,82,63,045,29*69
$GLGSV,3,3,10,83,57,247,36,84,05,239,19*60
$GNGLL,5454.15741,N,02356.48016,E,155352.00,A,A*7D
$GNRMC,155353.00,A,5454.15579,N,02356.47148,E,18.711,252.21,120126,,,A*49
$GNVTG,252.21,T,,M,18.711,N,34.653,K,A*2C
$GNGGA,155353.00,5454.15579,N,02356.47148,E,1,11,1.04,73.6,M,26.5,M,,*73
$GNGSA,A,3,05,26,31,18,16,28,29,,,,,,1.74,1.04,1.40*12
$GNGSA,A,3,73,80,82,83,,,,,,,,,1.74,1.04,1.40*13
$GPGSV,4,1,14,05,34,058,36,09,00,332,,16,37,302,27,18,67,194,34*7C
$GPGSV,4,2,14,21,,,24,23,,,26,25,08,151,26,26,61,257,35*71
$GPGSV,4,3,14,27,07,277,14,28,07,217,25,29,45,093,37,31,23,241,34*77
$GPGSV,4,4,14,36,27,181,,49,25,203,28*75
$GLGSV,3,1,10,65,13,001,17,66,22,050,24,67,06,103,,73,61,277,32*66
$GLGSV,3,2,10,74,25,327,16,80,37,185,27,81,16,056,18,82,63,045,28*65
$GLGSV,3,3,10,83,57,247,36,84,05,239,18*61
$GNGLL,5454.15579,N,02356.47148,E,155353.00,A,A*70
$GNRMC,155354.00,A,5454.15414,N,02356.46283,E,19.052,250.77,120126,,,A*41
$GNVTG,250.77,T,,M,19.052,N,35.284,K,A*23
$GNGGA,155354.00,5454.15414,N,02356.46283,E,1,11,1.04,73.5,M,26.5,M,,*78
$GNGSA,A,3,05,26,31,18,16,28,29,,,,,,1.74,1.04,1.40*12
$GNGSA,A,3,73,80,82,83,,,,,,,,,1.74,1.04,1.40*13
$GPGSV,4,1,14,05,34,058,33,09,00,332,,16,37,302,27,18,67,194,31*7C
$GPGSV,4,2,14,21,,,25,23,,,32,25,08,151,26,26,61,257,35*75
$GPGSV,4,3,14,27,07,277,15,28,07,217,25,29,45,093,35,31,23,241,34*74
$GPGSV,4,4,14,36,27,181,,49,25,203,31*7D
$GLGSV,3,1,10,65,13,001,16,66,22,050,24,67,06,103,,73,61,277,32*67
$GLGSV,3,2,10,74,25,327,14,80,37,185,31,81,16,056,17,82,63,045,28*6F
$GLGSV,3,3,10,83,57,247,36,84,05,239,18*61
$GNGLL,5454.15414,N,02356.46283,E,155354.00,A,A*78
$GNRMC,155355.00,A,5454.15245,N,02356.45408,E,18.992,251.86,120126,,,A*4F
$GNVTG,251.86,T,,M,18.992,N,35.173,K,A*23
$GNGGA,155355.00,5454.15245,N,02356.45408,E,1,12,1.04,73.3,M,26.5,M,,*78
$GNGSA,A,3,05,26,31,18,16,28,29,,,,,,1.74,1.04,1.40*12
$GNGSA,A,3,73,80,82,81,83,,,,,,,,1.74,1.04,1.40*1A
$GPGSV,4,1,14,05,34,058,28,09,00,332,,16,37,302,28,18,67,194,34*7C
$GPGSV,4,2,14,21,,,25,23,,,30,25,08,151,31,26,61,257,35*71
$GPGSV,4,3,14,27,07,277,14,28,07,217,25,29,45,093,35,31,23,241,35*74
$GPGSV,4,4,14,36,27,181,,49,25,203,29*74
$GLGSV,3,1,10,65,13,001,15,66,22,050,24,67,06,103,,73,61,277,32*64
$GLGSV,3,2,10,74,25,327,14,80,37,185,27,81,16,056,18,82,63,045,28*67
$GLGSV,3,3,10,83,57,247,35,84,05,239,18*62
$GNGLL,5454.15245,N,02356.45408,E,155355.00,A,A*7D
$GNRMC,155356.00,A,5454.15068,N,02356.44543,E,19.058,250.83,120126,,,A*44
$GNVTG,250.83,T,,M,19.058,N,35.295,K,A*22
$GNGGA,155356.00,5454.15068,N,02356.44543,E,1,12,1.04,73.6,M,26.5,M,,*7C
$GNGSA,A,3,05,26,31,18,16,28,29,,,,,,1.74,1.04,1.40*12
$GNGSA,A,3,73,80,82,81,83,,,,,,,,1.74,1.04,1.40*1A
$GPGSV,4,1,14,05,34,058,28,09,00,332,,16,37,302,27,18,67,194,34*73
$GPGSV,4,2,14,21,,,23,23,,,33,25,08,151,35,26,61,257,35*70
$GPGSV,4,3,14,27,07,277,14,28,07,217,25,29,45,093,34,31,23,241,32*72
$GPGSV,4,4,14,36,27,181,,49,25,203,29*74
$GLGSV,3,1,10,65,13,001,13,66,22,050,22,67,06,103,,73,61,277,32*64
$GLGSV,3,2,10,74,25,327,13,80,37,185,32,81,16,056,19,82,63,045,28*65
$GLGSV,3,3,10,83,57,247,35,84,05,239,17*6D
$GNGLL,5454.15068,N,02356.44543,E,155356.00,A,A*7C
$GNRMC,155357.00,A,5454.14883,N,02356.43703,E,18.680,248.80,120126,,,A*40
$GNVTG,248.80,T,,M,18.680,N,34.596,K,A*2F
$GNGGA,155357.00,5454.14883,N,02356.43703,E,1,12,1.04,73.6,M,26.5,M,,*70
$GNGSA,A,3,05,26,31,18,16,28,29,,,,,,1.74,1.04,1.40*12
$GNGSA,A,3,73,80,82,81,83,,,,,,,,1.74,1.04,1.40*1A
$GPGSV,4,1,14,05,34,058,32,09,00,332,,16,37,302,26,18,67,194,34*79
$GPGSV,4,2,14,21,,,21,23,,,29,25,08,151,26,26,61,257,35*7B
$GPGSV,4,3,14,27,07,277,12,28,07,217,25,29,45,093,34,31,23,241,35*73
$GPGSV,4,4,14,36,27,181,,49,25,203,30*7C
$GLGSV,3,1,10,65,13,001,12,66,22,050,20,67,06,103,,73,61,277,31*64
$GLGSV,3,2,10,74,25,327,11,80,37,185,28,81,16,056,19,82,63,045,27*63
$GLGSV,3,3,10,83,57,247,35,84,05,239,18*62
$GNGLL,5454.14883,N,02356.43703,E,155357.00,A,A*70
$GNRMC,155358.00,A,5454.14748,N,02356.42839,E,18.769,255.78,120126,,,A*4D
$GNVTG,255.78,T,,M,18.769,N,34.760,K,A*29
$GNGGA,155358.00,5454.14748,N,02356.42839,E,1,12,1.04,73.6,M,26.5,M,,*70
$GNGSA,A,3,05,26,31,18,16,28,29,,,,,,1.74,1.04,1.40*12
$GNGSA,A,3,73,80,82,81,83,,,,,,,,1.74,1.04,1.40*1A
$GPGSV,4,1,14,05,34,058,25,09,00,332,,16,37,302,25,18,67,194,34*7C
$GPGSV,4,2,14,21,,,18,23,,,29,25,08,151,26,26,61,257,35*71
$GPGSV,4,3,14,27,07,277,10,28,07,217,24,29,45,093,34,31,23,241,32*77
$GPGSV,4,4,14,36,27,181,,49,25,203,29*74
$GLGSV,3,1,10,65,13,001,11,66,22,050,20,67,06,103,,73,61,277,32*64
$GLGSV,3,2,10,74,25,327,,80,37,185,28,81,16,056,18,82,63,045,27*62
$GLGSV,3,3,10,83,57,247,36,84,05,239,18*61
$GNGLL,5454.14748,N,02356.42839,E,155358.00,A,A*70
$GNRMC,155359.00,A,5454.14622,N,02356.41970,E,18.662,254.53,120126,,,A*4C
$GNVTG,254.53,T,,M,18.662,N,34.562,K,A*2B
$GNGGA,155359.00,5454.14622,N,02356.41970,E,1,12,0.88,72.8,M,26.5,M,,*79
$GNGSA,A,3,05,26,31,18,16,28,29,,,,,,1.43,0.88,1.13*15
$GNGSA,A,3,73,80,82,81,83,65,,,,,,,1.43,0.88,1.13*1E
$GPGSV,4,1,14,05,34,058,27,09,00,332,,16,37,302,25,18,67,194,34*7E
$GPGSV,4,2,14,21,,,16,23,,,28,25,08,151,27,26,61,257,35*7F
$GPGSV,4,3,14,27,07,277,10,28,07,217,25,29,45,093,34,31,23,241,35*71
$GPGSV,4,4,14,36,27,181,,49,25,203,30*7C
$GLGSV,3,1,10,65,13,001,12,66,22,050,21,67,06,103,,73,61,277,31*65
$GLGSV,3,2,10,74,25,327,,80,37,185,27,81,16,056,17,82,63,045,27*62
$GLGSV,3,3,10,83,57,247,35,84,05,239,19*63
$GNGLL,5454.14622,N,02356.41970,E,155359.00,A,A*73
$GNRMC,155400.00,A,5454.14460,N,02356.41130,E,18.343,251.01,120126,,,A*4B
$GNVTG,251.01,T,,M,18.343,N,33.972,K,A*25
$GNGGA,155400.00,5454.14460,N,02356.41130,E,1,12,0.88,72.6,M,26.5,M,,*74
$GNGSA,A,3,05,26,31,18,16,28,29,,,,,,1.43,0.88,1.13*15
$GNGSA,A,3,73,80,82,81,83,65,,,,,,,1.43,0.88,1.13*1E
$GPGSV,4,1,14,05,34,058,27,09,00,332,,16,37,302,31,18,67,194,35*7A
$GPGSV,4,2,14,21,,,15,23,,,38,25,08,151,28,26,61,257,34*73
$GPGSV,4,3,14,27,07,277,10,28,07,217,24,29,45,093,33,31,23,241,34*76
$GPGSV,4,4,14,36,27,181,,49,25,203,29*74
$GLGSV,3,1,10,65,13,000,11,66,22,050,21,67,06,103,,73,61,277,31*67
$GLGSV,3,2,10,74,25,327,,80,37,185,28,81,16,056,19,82,63,045,27*63
$GLGSV,3,3,10,83,57,247,33,84,05,239,20*6F
$GNGLL,5454.14460,N,02356.41130,E,155400.00,A,A*70
$GNRMC,155401.00,A,5454.14295,N,02356.40303,E,18.092,250.27,120126,,,A*4F
$GNVTG,250.27,T,,M,18.092,N,33.507,K,A*21
$GNGGA,155401.00,5454.14295,N,02356.40303,E,1,12,1.04,72.7,M,26.5,M,,*7E
$GNGSA,A,3,05,26,31,18,16,28,29,,,,,,1.74,1.04,1.40*12
$GNGSA,A,3,73,80,82,81,83,,,,,,,,1.74,1.04,1.40*1A
$GPGSV,4,1,14,05,34,058,27,09,00,332,,16,37,302,24,18,67,194,35*7E
$GPGSV,4,2,14,21,,,17,23,,,33,25,08,151,36,26,61,257,37*76
$GPGSV,4,3,14,27,07,277,11,28,07,217,23,29,45,093,34,31,23,241,36*75
$GPGSV,4,4,14,36,27,181,,49,25,203,29*74
$GLGSV,3,1,10,65,13,000,10,66,22,050,21,67,06,103,,73,61,277,34*63
$GLGSV,3,2,10,74,25,327,,80,37,185,29,81,16,056,17,82,63,045,26*6D
$GLGSV,3,3,10,83,57,247,36,84,05,239,19*60
$GNGLL,5454.14295,N,02356.40303,E,155401.00,A,A*7E
$GNRMC,155402.00,A,5454.14149,N,02356.39489,E,17.671,252.85,120126,,,A*4B
$GNVTG,252.85,T,,M,17.671,N,32.726,K,A*2F
$GNGGA,155402.00,5454.14149,N,02356.39489,E,1,12,0.88,72.6,M,26.5,M,,*70
$GNGSA,A,3,05,26,31,18,16,28,29,,,,,,1.43,0.88,1.13*15
$GNGSA,A,3,73,80,82,81,83,65,,,,,,,1.43,0.88,1.13*1E
$GPGSV,4,1,14,05,34,058,26,09,00,332,,16,37,302,31,18,67,194,35*7B
$GPGSV,4,2,14,21,,,16,23,,,36,25,08,151,32,26,61,257,36*77
$GPGSV,4,3,14,27,07,277,12,28,07,217,23,29,45,093,35,31,23,241,33*72
$GPGSV,4,4,14,36,27,181,,49,25,203,29*74
$GLGSV,3,1,10,65,13,000,10,66,22,050,19,67,06,102,,73,61,277,33*6E
$GLGSV,3,2,10,74,25,327,,80,37,185,28,81,16,056,18,82,63,045,27*62
$GLGSV,3,3,10,83,57,247,36,84,05,239,17*6E
$GNGLL,5454.14149,N,02356.39489,E,155402.00,A,A*74
$GNRMC,155403.00,A,5454.14002,N,02356.38683,E,17.637,251.95,120126,,,A*4D
$GNVTG,251.95,T,,M,17.637,N,32.663,K,A*2F
$GNGGA,155403.00,5454.14002,N,02356.38683,E,1,12,0.88,72.4,M,26.5,M,,*74
$GNGSA,A,3,05,26,31,18,16,28,29,,,,,,1.43,0.88,1.12*14
$GNGSA,A,3,73,80,82,81,83,65,,,,,,,1.43,0.88,1.12*1F
$GPGSV,4,1,14,05,34,058,26,09,00,332,,16,37,302,32,18,67,194,35*78
$GPGSV,4,2,14,21,,,16,23,,,38,25,08,151,31,26,61,257,36*7A
$GPGSV,4,3,14,27,07,277,09,28,07,217,24,29,45,093,35,31,23,241,33*7F
$GPGSV,4,4,14,36,27,181,32,49,25,203,29*75
$GLGSV,3,1,10,65,13,000,11,66,22,050,20,67,06,102,,73,61,277,33*65
$GLGSV,3,2,10,74,25,327,,80,37,185,28,81,16,056,17,82,63,045,28*62
$GLGSV,3,3,10,83,57,247,36,84,05,239,17*6E
$GNGLL,5454.14002,N,02356.38683,E,155403.00,A,A*72
$GNRMC,155404.00,A,5454.13846,N,02356.37881,E,17.530,251.13,120126,,,A*4C
$GNVTG,251.13,T,,M,17.530,N,32.465,K,A*21
$GNGGA,155404.00,5454.13846,N,02356.37881,E,1,12,1.04,72.4,M,26.5,M,,*7A
$GNGSA,A,3,05,26,31,18,16,28,29,,,,,,1.74,1.04,1.40*12
$GNGSA,A,3,73,80,82,81,83,,,,,,,,1.74,1.04,1.40*1A
$GPGSV,4,1,14,05,34,058,31,09,00,332,,16,37,302,27,18,67,194,35*7A
$GPGSV,4,2,14,21,,,16,23,,,29,25,08,151,31,26,61,257,36*7A
$GPGSV,4,3,14,27,07,277,08,28,07,217,24,29,45,093,35,31,23,241,33*7E
$GPGSV,4,4,14,36,27,181,36,49,25,203,30*79
$GLGSV,3,1,10,65,13,000,09,66,22,050,19,67,06,102,,73,61,277,33*66
$GLGSV,3,2,10,74,25,327,,80,37,185,28,81,16,056,17,82,63,045,28*62
$GLGSV,3,3,10,83,57,247,36,84,05,239,16*6F
$GNGLL,5454.13846,N,02356.37881,E,155404.00,A,A*79
$GNRMC,155405.00,A,5454.13689,N,02356.37086,E,17.364,251.51,120126,,,A*4E
$GNVTG,251.51,T,,M,17.364,N,32.158,K,A*2B
$GNGGA,155405.00,5454.13689,N,02356.37086,E,1,12,1.04,72.3,M,26.5,M,,*7E
$GNGSA,A,3,05,26,31,18,16,28,29,,,,,,1.74,1.04,1.40*12
$GNGSA,A,3,73,80,82,81,83,,,,,,,,1.74,1.04,1.40*1A
$GPGSV,4,1,14,05,34,058,35,09,00,332,,16,37,302,28,18,67,194,35*71
$GPGSV,4,2,14,21,,,17,23,,,31,25,08,151,32,26,61,257,36*71
$GPGSV,4,3,14,27,07,277,,28,07,217,24,29,45,093,35,31,23,241,34*71
$GPGSV,4,4,14,36,27,181,30,49,25,203,30*7F
$GLGSV,3,1,10,65,13,000,08,66,22,050,21,67,06,102,,73,61,277,33*6C
$GLGSV,3,2,10,74,25,327,,80,37,185,29,81,16,056,16,82,63,045,29*63
$GLGSV,3,3,10,83,57,247,36,84,05,239,16*6F
$GNGLL,5454.13689,N,02356.37086,E,155405.00,A,A*7A
$GNRMC,155406.00,A,5454.13530,N,02356.36306,E,17.056,250.54,120126,,,A*40
$GNVTG,250.54,T,,M,17.056,N,31.587,K,A*28
$GNGGA,155406.00,5454.13530,N,02356.36306,E,1,11,1.04,72.3,M,26.5,M,,*75
$GNGSA,A,3,05,26,31,18,16,28,29,,,,,,1.74,1.04,1.39*1C
$GNGSA,A,3,73,80,82,83,,,,,,,,,1.74,1.04,1.39*1D
$GPGSV,4,1,14,05,34,058,32,09,00,332,,16,37,302,26,18,67,194,34*79
$GPGSV,4,2,14,21,,,17,23,,,31,25,08,151,31,26,61,257,35*71
$GPGSV,4,3,14,27,07,277,,28,07,217,22,29,45,093,34,31,23,241,33*71
$GPGSV,4,4,14,36,27,181,31,49,25,203,30*7E
$GLGSV,3,1,10,65,13,000,08,66,22,050,22,67,06,102,,73,61,277,33*6F
$GLGSV,3,2,10,74,25,327,,80,37,185,28,81,16,056,,82,63,045,28*64
$GLGSV,3,3,10,83,57,247,36,84,05,239,16*6F
$GNGLL,5454.13530,N,02356.36306,E,155406.00,A,A*72
$GNRMC,155407.00,A,5454.13377,N,02356.35533,E,16.911,251.73,120126,,,A*48
$GNVTG,251.73,T,,M,16.911,N,31.319,K,A*26
$GNGGA,155407.00,5454.13377,N,02356.35533,E,1,11,1.04,72.1,M,26.5,M,,*70
$GNGSA,A,3,05,26,31,18,16,28,29,,,,,,1.74,1.04,1.39*1C
$GNGSA,A,3,73,80,82,83,,,,,,,,,1.74,1.04,1.39*1D
$GPGSV,4,1,14,05,34,058,32,09,00,332,,16,37,302,31,18,67,194,35*7E
$GPGSV,4,2,14,21,,,20,23,,,35,25,08,151,24,26,61,257,35*75
$GPGSV,4,3,14,27,07,277,,28,07,217,21,29,45,093,34,31,23,241,34*75
$GPGSV,4,4,14,36,27,181,35,49,25,203,34*7E
$GLGSV,3,1,10,65,13,000,09,66,22,050,23,67,06,102,,73,61,277,33*6F
$GLGSV,3,2,10,74,25,327,,80,37,185,29,81,16,056,,82,63,045,26*6B
$GLGSV,3,3,10,83,57,247,36,84,05,239,15*6C
$GNGLL,5454.13377,N,02356.35533,E,155407.00,A,A*75
$GNRMC,155408.00,A,5454.13219,N,02356.34768,E,16.871,250.96,120126,,,A*4E
$GNVTG,250.96,T,,M,16.871,N,31.246,K,A*20
$GNGGA,155408.00,5454.13219,N,02356.34768,E,1,11,1.04,72.1,M,26.5,M,,*7B
$GNGSA,A,3,05,26,31,18,16,28,29,,,,,,1.74,1.04,1.39*1C
$GNGSA,A,3,73,80,82,83,,,,,,,,,1.74,1.04,1.39*1D
$GPGSV,4,1,14,05,34,058,28,09,00,332,,16,37,302,24,18,67,194,35*71
$GPGSV,4,2,14,21,,,21,23,,,37,25,08,151,31,26,61,257,36*71
$GPGSV,4,3,14,27,07,277,,28,07,217,23,29,45,093,34,31,23,241,34*77
$GPGSV,4,4,14,36,27,181,37,49,25,203,29*70
$GLGSV,3,1,10,65,13,000,08,66,22,050,23,67,06,102,,73,61,276,32*6E
$GLGSV,3,2,10,74,25,327,21,80,37,185,29,81,16,056,21,82,63,045,27*6A
$GLGSV,3,3,10,83,57,247,36,84,05,239,14*6D
$GNGLL,5454.13219,N,02356.34768,E,155408.00,A,A*7E
$GNRMC,155409.00,A,5454.13068,N,02356.34006,E,16.824,250.79,120126,,,A*45
$GNVTG,250.79,T,,M,16.824,N,31.158,K,A*2D
$GNGGA,155409.00,5454.13068,N,02356.34006,E,1,11,1.04,72.3,M,26.5,M,,*73
$GNGSA,A,3,05,26,31,18,16,28,29,,,,,,1.74,1.04,1.39*1C
$GNGSA,A,3,73,80,82,83,,,,,,,,,1.74,1.04,1.39*1D
$GPGSV,4,1,14,05,34,058,33,09,00,332,,16,37,302,23,18,67,194,35*7C
$GPGSV,4,2,14,21,,,23,23,,,38,25,08,151,34,26,61,257,36*79
$GPGSV,4,3,14,27,07,277,,28,07,217,22,29,45,093,34,31,23,241,33*71
$GPGSV,4,4,14,36,27,181,31,49,25,203,28*77
$GLGSV,3,1,10,65,13,000,09,66,22,050,23,67,06,102,20,73,61,276,33*6C
$GLGSV,3,2,10,74,25,327,,80,37,185,29,81,16,056,20,82,63,045,27*68
$GLGSV,3,3,10,83,57,247,36,84,05,239,14*6D
$GNGLL,5454.13068,N,02356.34006,E,155409.00,A,A*74
$GNRMC,155410.00,A,5454.12913,N,02356.33237,E,16.863,250.38,120126,,,A*48
$GNVTG,250.38,T,,M,16.863,N,31.231,K,A*27
$GNGGA,155410.00,5454.12913,N,02356.33237,E,1,12,1.04,72.4,M,26.5,M,,*7C
$GNGSA,A,3,05,26,31,18,16,28,29,,,,,,1.74,1.04,1.39*1C
$GNGSA,A,3,73,80,82,81,83,,,,,,,,1.74,1.04,1.39*14
$GPGSV,4,1,14,05,34,058,29,09,00,332,,16,37,302,23,18,67,194,35*77
$GPGSV,4,2,14,21,,,22,23,,,28,25,08,151,34,26,61,257,36*79
$GPGSV,4,3,14,27,07,277,,28,07,217,20,29,45,093,35,31,23,241,34*75
$GPGSV,4,4,14,36,27,181,30,49,25,203,29*77
$GLGSV,3,1,10,65,13,000,09,66,22,050,22,67,06,102,22,73,61,276,33*6F
$GLGSV,3,2,10,74,25,327,,80,37,185,28,81,16,056,20,82,63,045,27*69
$GLGSV,3,3,10,83,57,247,36,84,05,239,16*6F
$GNGLL,5454.12913,N,02356.33237,E,155410.00,A,A*7F
$GNRMC,155411.00,A,5454.12760,N,02356.32474,E,16.691,251.35,120126,,,A*4C
$GNVTG,251.35,T,,M,16.691,N,30.912,K,A*23
$GNGGA,155411.00,5454.12760,N,02356.32474,E,1,12,1.04,72.8,M,26.5,M,,*7B
$GNGSA,A,3,05,26,31,18,16,28,29,,,,,,1.74,1.04,1.39*1C
$GNGSA,A,3,73,80,82,81,83,,,,,,,,1.74,1.04,1.39*14
$GPGSV,4,1,14,05,34,058,33,09,00,332,,16,37,302,23,18,67,194,35*7C
$GPGSV,4,2,14,21,,,21,23,,,27,25,08,151,30,26,61,257,36*71
$GPGSV,4,3,14,27,07,277,,28,07,217,17,29,45,093,35,31,23,241,34*71
$GPGSV,4,4,14,36,27,181,35,49,25,203,29*72
$GLGSV,3,1,10,65,13,000,09,66,22,050,20,67,06,102,24,73,61,276,33*6B
$GLGSV,3,2,10,74,25,327,,80,37,185,29,81,16,056,19,82,63,045,27*62
$GLGSV,3,3,10,83,57,247,36,84,05,239,16*6F
$GNGLL,5454.12760,N,02356.32474,E,155411.00,A,A*74
$GNRMC,155412.00,A,5454.12611,N,02356.31705,E,16.859,251.47,120126,,,A*41
$GNVTG,251.47,T,,M,16.859,N,31.222,K,A*25
$GNGGA,155412.00,5454.12611,N,02356.31705,E,1,12,1.04,72.8,M,26.5,M,,*79
$GNGSA,A,3,05,26,31,18,16,28,29,,,,,,1.74,1.04,1.39*1C
$GNGSA,A,3,73,80,82,81,83,,,,,,,,1.74,1.04,1.39*14
$GPGSV,4,1,14,05,34,058,28,09,00,332,,16,37,302,25,18,67,194,36*73
$GPGSV,4,2,14,21,,,17,23,,,28,25,08,151,33,26,61,257,37*79
$GPGSV,4,3,14,27,07,277,,28,07,217,17,29,45,093,34,31,23,241,37*73
$GPGSV,4,4,14,36,27,181,36,49,25,203,29*71
$GLGSV,3,1,10,65,13,000,09,66,22,050,19,67,06,102,25,73,61,276,34*67
$GLGSV,3,2,10,74,25,327,,80,37,185,31,81,16,056,18,82,63,045,27*6A
$GLGSV,3,3,10,83,57,247,36,84,05,239,17*6E
$GNGLL,5454.12611,N,02356.31705,E,155412.00,A,A*76
$GNRMC,155413.00,A,5454.12467,N,02356.30936,E,16.731,252.03,120126,,,A*4E
$GNVTG,252.03,T,,M,16.731,N,30.986,K,A*23
$GNGGA,155413.00,5454.12467,N,02356.30936,E,1,12,1.04,73.0,M,26.5,M,,*7D
$GNGSA,A,3,05,26,31,18,16,28,29,,,,,,1.74,1.04,1.39*1C
$GNGSA,A,3,73,80,82,81,83,,,,,,,,1.74,1.04,1.39*14
$GPGSV,4,1,14,05,34,058,28,09,00,332,,16,37,302,25,18,67,194,35*70
$GPGSV,4,2,14,21,,,16,23,,,36,25,08,151,19,26,61,257,37*7F
$GPGSV,4,3,14,27,07,277,,28,07,217,15,29,45,093,35,31,23,241,32*75
$GPGSV,4,4,14,36,27,181,34,49,25,203,29*73
$GLGSV,3,1,10,65,13,000,09,66,22,050,20,67,06,102,21,73,61,276,31*6C
$GLGSV,3,2,10,74,25,327,,80,37,185,26,81,16,056,18,82,63,045,28*63
$GLGSV,3,3,10,83,57,247,34,84,05,239,18*63
$GNGLL,5454.12467,N,02356.30936,E,155413.00,A,A*7B
$GNRMC,155414.00,A,5454.12319,N,02356.30169,E,16.722,251.00,120126,,,A*47
$GNVTG,251.00,T,,M,16.722,N,30.970,K,A*28
$GNGGA,155414.00,5454.12319,N,02356.30169,E,1,12,1.07,73.1,M,26.5,M,,*74
$GNGSA,A,3,05,26,31,18,16,28,29,,,,,,2.13,1.07,1.84*1B
$GNGSA,A,3,73,80,82,81,83,,,,,,,,2.13,1.07,1.84*13
$GPGSV,4,1,14,05,34,058,28,09,00,332,,16,37,302,25,18,67,194,35*70
$GPGSV,4,2,14,21,,,13,23,,,32,25,08,151,29,26,61,257,37*7D
$GPGSV,4,3,14,27,07,277,23,28,07,217,13,29,45,093,35,31,23,241,31*71
$GPGSV,4,4,14,36,27,181,33,49,25,203,30*7C
$GLGSV,3,1,10,65,13,000,08,66,22,050,21,67,06,102,17,73,61,276,32*6A
$GLGSV,3,2,10,74,25,327,,80,37,185,26,81,16,056,18,82,63,045,28*63
$GLGSV,3,3,10,83,57,247,34,84,05,239,19*62
$GNGLL,5454.12319,N,02356.30169,E,155414.00,A,A*70
$GNRMC,155415.00,A,5454.12167,N,02356.29414,E,16.461,250.81,120126,,,A*46
$GNVTG,250.81,T,,M,16.461,N,30.486,K,A*20
$GNGGA,155415.00,5454.12167,N,02356.29414,E,1,12,1.07,73.2,M,26.5,M,,*7A
$GNGSA,A,3,05,26,31,18,16,28,29,,,,,,2.13,1.07,1.83*1C
$GNGSA,A,3,73,80,82,81,83,,,,,,,,2.13,1.07,1.83*14
$GPGSV,4,1,14,05,34,058,29,09,00,332,,16,37,302,26,18,67,194,35*72
$GPGSV,4,2,14,21,,,14,23,,,28,25,08,151,27,26,61,257,37*7F
$GPGSV,4,3,14,27,07,277,26,28,07,217,13,29,45,093,36,31,23,241,31*77
$GPGSV,4,4,14,36,27,181,34,49,25,203,29*73
$GLGSV,3,1,10,65,13,000,08,66,22,050,22,67,06,102,19,73,61,276,33*66
$GLGSV,3,2,10,74,25,327,,80,37,184,26,81,16,056,18,82,63,045,28*62
$GLGSV,3,3,10,83,57,247,35,84,05,239,19*63
$GNGLL,5454.12167,N,02356.29414,E,155415.00,A,A*7D
$GNRMC,155416.00,A,5454.12024,N,02356.28662,E,16.320,253.29,120126,,,A*42
$GNVTG,253.29,T,,M,16.320,N,30.225,K,A*2C
$GNGGA,155416.00,5454.12024,N,02356.28662,E,1,12,1.03,73.1,M,26.5,M,,*7A
$GNGSA,A,3,05,26,31,18,16,28,29,,,,,,1.80,1.03,1.48*16
$GNGSA,A,3,73,80,82,81,83,,,,,,,,1.80,1.03,1.48*1E
$GPGSV,4,1,14,05,34,058,28,09,00,332,,16,37,302,27,18,67,194,35*72
$GPGSV,4,2,14,21,,,13,23,,,28,25,08,151,24,26,61,257,37*7B
$GPGSV,4,3,14,27,07,277,25,28,07,217,15,29,45,093,33,31,23,241,33*75
$GPGSV,4,4,14,36,27,181,36,49,25,203,28*70
